[
    { "lat": 37.553149, "lng": 126.968881, "title": "용산구 서울역 광장 15번 출구 흡연구역" },
    { "lat": 37.55376, "lng": 126.969662, "title": "용산구 서울역 광장 1번 출구 흡연구역" },
    { "lat": 37.528404, "lng": 126.965569, "title": "용산구 용산역 광장 흡연구역" },
    { "lat": 37.532709, "lng": 126.965569, "title": "남산공원 흡연구역" },
    { "lat": 37.49821257, "lng": 126.8670887, "title": "고척 돔구장 흡연구역" },
    { "lat": 37.64044018, "lng": 127.0676933, "title": "노원구 등나무문화공원 흡연구역" },
    { "lat": 37.63965447, "lng": 127.0651318, "title": "노원구 중계근린공원 주차장 흡연구역" }
]
