[
    { "lat": 37.5665, "lng": 126.9780, "title": "서울시청 흡연구역" },
    { "lat": 37.5700, "lng": 126.9768, "title": "광화문 흡연구역" },
    { "lat": 37.5583, "lng": 126.9723, "title": "남대문시장 흡연구역" },
    { "lat": 37.5512, "lng": 126.9882, "title": "남산공원 흡연구역" },
    { "lat": 37.49821257, "lng": 126.8670887, "title": "고척 돔구장 흡연구역" }
]
