[
  {
    "lat": 37.553660837994904,
    "lng": 126.96933358150913,
    "title": "서울역 15번 출구 흡연구역",
    "description": "서울역 15번 출구 앞 광장에 위치한 흡연구역입니다.",
    "images": ["images/IMG_6207.jpg"],
    "type": "public"
  },
  {
    "lat": 37.55501738661711,
    "lng": 126.97151725883685,
    "title": "서울역 1번 출구 흡연구역",
    "images": ["https://via.placeholder.com/200x120?text=흡연구역"],
    "description": "1번 출구 옆 공터에 위치한 흡연구역입니다.",
    "type": "public"
  },
  {
    "lat": 37.638988592390746,
    "lng": 127.06541089577844,
    "title": "중계근린공원 주차장 흡연구역",
    "images": ["images/중계근린공원 흡연구역.jpg"],
    "description": "중계근린공원 주차장에 위치한 흡연구역입니다.",
    "type": "public",
    "form": "반개방형"
  },
  {
    "lat": 37.63949836366099,
    "lng": 127.06812772733437,
    "title": "등나무문화공원 주차장 흡연구역",
    "images": ["images/등나무문화공원 흡연구역.jpg"],
    "description": "등나무문화공원 주차장에 위치한 흡연구역입니다.",
    "type": "public",
    "form": "폐쇄형"
  },
  {
    "lat": 37.49821257,
    "lng": 126.8670887,
    "title": "고척 돔구장 흡연구역",
    "images": ["https://via.placeholder.com/200x120?text=서울역+1번출구"],
    "description": "고척 돔구장에 위치한 흡연구역입니다.",
    "type": "building"
  },
  {
    "lat": 37.581239,
    "lng": 127.0882184,
    "title": "탐앤탐스 사가정역점",
    "images": ["https://via.placeholder.com/200x120?text=서울역+1번출구"],
    "description": "사가정역 2번 출구 앞에 위치한 탐앤탐스입니다.",
    "type": "cafe",
    "form": "폐쇄형"
  },
  {
    "lat": 37.529492,
    "lng": 126.964318,
    "title": "아이파크몰 8층 옥상 흡연구역",
    "images": ["https://via.placeholder.com/200x120?text=서울역+1번출구"],
    "description": "아이파크몰 8층 옥상에 위치한 흡연구역입니다.",
    "type": "building"
  },
  {
    "lat": 37.50904,
    "lng": 126.8912,
    "title": "신도림역 2번 출구 흡연구역",
    "images": ["https://via.placeholder.com/200x120?text=서울역+1번출구"],
    "description": "신도림역 2번 출구에 위한 흡연구역입니다.",
    "type": "public"
  },
  {
    "lat": 37.5225,
    "lng": 126.9238,
    "title": "여의도역 3번 출구 흡연구역",
    "images": ["https://via.placeholder.com/200x120?text=서울역+1번출구"],
    "description": "여의도역 3번 출구에 위치한 흡연구역입니다.",
    "type": "public"
  },
  {
    "address": "서울특별시 성동구 성수동1가 686-709 (디타워 앞)",
    "title": "디타워 앞 흡연구역",
    "lat": 37.5436099,
    "lng": 127.0428194,
    "type": "public",
    "description": "디타워 앞 흡연구역입니다.",
    "images": ["https://via.placeholder.com/200x120?text=서울역+1번출구"]
  },
  {
    "address": "서울특별시 성동구 성수동1가 656-3 (서울숲 포휴 앞)",
    "title": "서울숲 포휴 앞 흡연구역",
    "lat": 37.5426627,
    "lng": 127.0451987,
    "type": "public",
    "description": "서울숲 포휴 앞 흡연구역입니다.",
    "images": ["https://via.placeholder.com/200x120?text=서울역+1번출구"]
  },
  {
    "address": "서울특별시 성동구 성수동2가 280 (SKV1 화양사거리)",
    "title": " SKV1 화양사거리 흡연구역",
    "lat": 37.5468653,
    "lng": 127.0514978,
    "type": "public",
    "description": " SKV1 화양사거리 흡연구역입니다.",
    "images": ["https://via.placeholder.com/200x120?text=서울역+1번출구"]
  },
  {
    "address": "서울특별시 성동구 행당동 1-182 (왕십리역 6번 출구 뒤)",
    "title": "왕십리역 6번 출구 뒤 흡연구역",
    "lat": 37.561234,
    "lng": 127.039169,
    "type": "public",
    "description": "왕십리역 6번 출구 뒤 흡연구역입니다.",
    "images": ["https://via.placeholder.com/200x120?text=서울역+1번출구"]
  },
  {
    "address": "서울특별시 성동구 도선동 58-1 (세신빌딩 뒤)",
    "title": "세신빌딩 뒤 흡연구역",
    "lat": 37.5627152,
    "lng": 127.0338928,
    "type": "public",
    "description": "세신빌딩 뒤 흡연구역입니다.",
    "images": ["https://via.placeholder.com/200x120?text=서울역+1번출구"]
  },
  {
    "address": "서울특별시 성동구 성수동2가 276-5 (성수역 3번 출구)",
    "title": "성수역 3번 출구 흡연구역",
    "lat": 37.544188460053505,
    "lng": 127.05671961148272,
    "type": "public",
    "description": "성수역 3번 출구 흡연구역입니다.",
    "images": ["images/성수역 3번 출구 흡연구역.jpg"],
    "form": "폐쇄형"
  },
  {
    "address": "서울특별시 성동구 성수동2가 325-2 (한라시그마밸리 뒤)",
    "title": "한라시그마벨리 뒤 흡연구역",
    "lat": 37.539893,
    "lng": 127.055188,
    "type": "public",
    "description": "한라시그마벨리 뒤 흡연구역입니다.",
    "images": ["https://via.placeholder.com/200x120?text=서울역+1번출구"]
  },
  {
    "address": "서울특별시 성동구 성수동2가 277-43 (아크밸리 앞)",
    "title": "아크밸리 앞 흡연구역",
    "lat": 37.54388369999999,
    "lng": 127.0613025,
    "type": "public",
    "description": "아크밸리 앞 흡연구역입니다.",
    "images": ["https://via.placeholder.com/200x120?text=서울역+1번출구"]
  },
  {
    "address": "서울특별시 성동구 성수동2가 315-61 (성수역 SKV1타워 앞)",
    "title": "성수역 SKV1타워 앞 흡연구역",
    "lat": 37.54351784695569,
    "lng": 127.05538952854079,
    "type": "public",
    "description": "성수역 SKV1타워 앞 흡연구역입니다.",
    "images": ["images/성수역 SKV1타워 앞 흡연구역.jpg"],
    "form": "폐쇄형"
  },
  {
    "address": "서울특별시 성동구 성수동1가 13-164 (서울숲IT밸리 앞)",
    "title": "서울숲IT밸리 앞 흡연구역",
    "lat": 37.547478,
    "lng": 127.0498957,
    "type": "public",
    "description": "서울숲IT밸리 앞 흡연구역입니다.",
    "images": ["https://via.placeholder.com/200x120?text=서울역+1번출구"]
  },
  {
    "address": "서울특별시 강북구 오현로 145",
    "title": "강북문화정보도서관 흡연구역",
    "lat": 37.6252184,
    "lng": 127.0362995,
    "type": "public",
    "description": "강북문화정보도서관 흡연구역입니다. ",
    "images": ["https://via.placeholder.com/200x120?text=서울역+1번출구"]
  },
  {
    "address": "서울특별시 광진구 강변역로50",
    "title": "동서울종합터미널 앞 흡연구역",
    "lat": 37.53402163,
    "lng": 127.0935966,
    "type": "public",
    "description": "동서울종합터미널 앞 흡연구역입니다.",
    "images": ["https://via.placeholder.com/200x120?text=서울역+1번출구"]
  },
  {
    "address": "서울특별시 동작구 노량진동 148-87",
    "title": "노량진 컵밥거리 흡연구역",
    "lat": 37.82298375156579,
    "lng": 127.73981376962955,
    "type": "public",
    "description": "노량진 컵밥거리 흡연구역입니다.",
    "images": ["https://via.placeholder.com/200x120?text=서울역+1번출구"]
  },
  {
    "address": "서울 중랑구 신내동 565-1",
    "title": "탐앤탐스 중랑구청점",
    "lat": 37.605552,
    "lng": 127.096092,
    "type": "cafe",
    "description": "흡연실이 있는 탐앤탐스 중랑구청점입니다. ",
    "images": ["https://via.placeholder.com/200x120?text=서울역+1번출구"],
    "form": "폐쇄형"
  },
  {
    "address": "서울특별시 송파구 신천동 30",
    "title": "롯데월드몰 잔디광장 흡연구역",
    "lat": 37.513104,
    "lng": 127.105134,
    "type": "public",
    "description": "롯데월드몰 잔디광장에 위치한 흡연구역입니다.",
    "images": ["images/롯데월드몰 잔디광장 흡연구역.jpg"],
    "form": "반개방형"
  },
  {
    "lat": 37.633465,
    "lng": 127.1156738,
    "title": "갈매동 흡연구역",
    "images": ["images/갈매동 흡연구역.jpg", "images/갈매동_흡연구역_2.jpg"],
    "description": "갈매역 맞은편에 위치한 흡연구역입니다.",
    "type": "public",
    "form": "완전개방형"
  },
  {
    "title": "강서구청 주차장 뒤편",
    "lat": 37.5508806,
    "lng": 126.8496649,
    "type": "public",
    "description": "강서구청 주차장 뒤편 흡연구역입니다.",
    "images": ["https://via.placeholder.com/200x120?text=%EC%84%9C%EC%9A%B8%EC%97%AD+1%EB%B2%88%EC%B6%9C%EA%B5%AC"]
  },
  {
    "title": "강서구민회관 1층",
    "lat": 37.5519333,
    "lng": 126.8416092,
    "type": "public",
    "description": "강서구민회관 1층 흡연구역입니다.",
    "images": ["https://via.placeholder.com/200x120?text=%EC%84%9C%EC%9A%B8%EC%97%AD+1%EB%B2%88%EC%B6%9C%EA%B5%AC"]
  },
  {
    "title": "마곡 실내배드민턴장 1층 주차장 뒤편",
    "lat": 37.5656712,
    "lng": 126.840318,
    "type": "public",
    "description": "마곡 실내배드민턴장 1층 주차장 뒤편 흡연구역입니다.",
    "images": ["https://via.placeholder.com/200x120?text=%EC%84%9C%EC%9A%B8%EC%97%AD+1%EB%B2%88%EC%B6%9C%EA%B5%AC"]
  },
  {
    "title": "김포공항화물청사 1층 옥외의 일부",
    "lat": 37.5558905,
    "lng": 126.8081093,
    "type": "public",
    "description": "김포공항화물청사 1층 옥외의 일부 흡연구역입니다.",
    "images": ["https://via.placeholder.com/200x120?text=%EC%84%9C%EC%9A%B8%EC%97%AD+1%EB%B2%88%EC%B6%9C%EA%B5%AC"]
  },
  {
    "title": "김포공항국제선 옥외의 일부",
    "lat": 37.56602749522891,
    "lng": 126.80086605682935,
    "type": "public",
    "description": "김포공항국제선 옥외의 일부 흡연구역입니다.",
    "images": ["https://via.placeholder.com/200x120?text=%EC%84%9C%EC%9A%B8%EC%97%AD+1%EB%B2%88%EC%B6%9C%EA%B5%AC"]
  },
  {
    "title": "김포공항국내선 옥외의 일부",
    "lat": 37.55871467629855,
    "lng": 126.80280954804337,
    "type": "public",
    "description": "김포공항국내선 옥외의 일부 흡연구역입니다.",
    "images": ["https://via.placeholder.com/200x120?text=%EC%84%9C%EC%9A%B8%EC%97%AD+1%EB%B2%88%EC%B6%9C%EA%B5%AC"]
  },
  {
    "title": "광진경찰서",
    "lat": 37.54291084244512,
    "lng": 127.08394924596045,
    "type": "public",
    "description": "광진경찰서 흡연구역입니다",
    "images": ["https://via.placeholder.com/200x120?text=%EC%84%9C%EC%9A%B8%EC%97%AD+1%EB%B2%88%EC%B6%9C%EA%B5%AC"]
  },
  {
    "title": "광진소방서",
    "lat": 37.5448313,
    "lng": 127.0828431,
    "type": "public",
    "description": "광진소방서 흡연구역입니다.",
    "images": ["https://via.placeholder.com/200x120?text=%EC%84%9C%EC%9A%B8%EC%97%AD+1%EB%B2%88%EC%B6%9C%EA%B5%AC"]
  },
  {
    "title": "광진소방서",
    "lat": 37.5443273,
    "lng": 127.0863479,
    "type": "public",
    "description": "광진소방서 흡연구역입니다",
    "images": ["https://via.placeholder.com/200x120?text=%EC%84%9C%EC%9A%B8%EC%97%AD+1%EB%B2%88%EC%B6%9C%EA%B5%AC"]
  },
  {
    "title": "광진우편집중국",
    "lat": 37.53557322599497,
    "lng": 127.08565514075539,
    "type": "public",
    "description": "광진우편집중국 흡연구역입니다.",
    "images": ["https://via.placeholder.com/200x120?text=%EC%84%9C%EC%9A%B8%EC%97%AD+1%EB%B2%88%EC%B6%9C%EA%B5%AC"]
  },
  {
    "title": "광진우체국",
    "lat": 37.537849160142756,
    "lng": 127.090477794377,
    "type": "public",
    "description": "광진우체국 흡연구역입니다.",
    "images": ["https://via.placeholder.com/200x120?text=%EC%84%9C%EC%9A%B8%EC%97%AD+1%EB%B2%88%EC%B6%9C%EA%B5%AC"]
  },
  {
    "title": "광진구청",
    "lat": 37.53856011330372,
    "lng": 127.08238858587187,
    "type": "public",
    "description": "광진구청 흡연구역입니다.",
    "images": ["https://via.placeholder.com/200x120?text=%EC%84%9C%EC%9A%B8%EC%97%AD+1%EB%B2%88%EC%B6%9C%EA%B5%AC"]
  },
  {
    "title": "화양동 주민자치센터",
    "lat": 37.54647581440514,
    "lng": 127.07136139052241,
    "type": "public",
    "description": "화양동 주민자치센터 흡연구역입니다.",
    "images": ["https://via.placeholder.com/200x120?text=%EC%84%9C%EC%9A%B8%EC%97%AD+1%EB%B2%88%EC%B6%9C%EA%B5%AC"]
  },
  {
    "title": "서울시 물연구원",
    "lat": 37.5467622,
    "lng": 127.0921741,
    "type": "public",
    "description": "서울시 물연구원 흡연구역입니다.",
    "images": ["https://via.placeholder.com/200x120?text=%EC%84%9C%EC%9A%B8%EC%97%AD+1%EB%B2%88%EC%B6%9C%EA%B5%AC"]
  },
  {
    "title": "아차산배수지체육공원",
    "lat": 37.5489614,
    "lng": 127.0965031,
    "type": "public",
    "description": "아차산배수지체육공원 흡연구역입니다.",
    "images": ["https://via.placeholder.com/200x120?text=%EC%84%9C%EC%9A%B8%EC%97%AD+1%EB%B2%88%EC%B6%9C%EA%B5%AC"]
  },
  {
    "title": "국립정신건강센터",
    "lat": 37.5650124,
    "lng": 127.0857923,
    "type": "building",
    "description": "국립정신건강센터 흡연구역입니다.",
    "images": ["https://via.placeholder.com/200x120?text=%EC%84%9C%EC%9A%B8%EC%97%AD+1%EB%B2%88%EC%B6%9C%EA%B5%AC"]
  },
  {
    "title": "세종대학교 대양홀",
    "lat": 37.5507345,
    "lng": 127.0741314,
    "type": "building",
    "description": "세종대학교 대양홀 흡연구역입니다.",
    "images": ["https://via.placeholder.com/200x120?text=%EC%84%9C%EC%9A%B8%EC%97%AD+1%EB%B2%88%EC%B6%9C%EA%B5%AC"]
  },
  {
    "title": "유니버설아트센터 ",
    "lat": 37.550926782703336,
    "lng": 127.08799827951832,
    "type": "building",
    "description": "유니버설아트센터 흡연구역입니다.",
    "images": ["https://via.placeholder.com/200x120?text=%EC%84%9C%EC%9A%B8%EC%97%AD+1%EB%B2%88%EC%B6%9C%EA%B5%AC"]
  },
  {
    "title": "건국대학교새천년관 대공연장",
    "lat": 37.5425408,
    "lng": 127.0737253,
    "type": "building",
    "description": "건국대학교새천년관 대공연장 흡연구역입니다.",
    "images": ["https://via.placeholder.com/200x120?text=%EC%84%9C%EC%9A%B8%EC%97%AD+1%EB%B2%88%EC%B6%9C%EA%B5%AC"]
  },
  {
    "title": "세종대학교 학생회관 대공연장",
    "lat": 37.549606663343994,
    "lng": 127.07518650638943,
    "type": "building",
    "description": "세종대학교 학생회관 대공연장 흡연구역입니다.",
    "images": ["https://via.placeholder.com/200x120?text=%EC%84%9C%EC%9A%B8%EC%97%AD+1%EB%B2%88%EC%B6%9C%EA%B5%AC"]
  },
  {
    "title": "이마트 자양점",
    "lat": 37.53841512726353,
    "lng": 127.07339602204489,
    "type": "building",
    "description": "이마트 자양점 흡연구역입니다.",
    "images": ["https://via.placeholder.com/200x120?text=%EC%84%9C%EC%9A%B8%EC%97%AD+1%EB%B2%88%EC%B6%9C%EA%B5%AC"]
  },
  {
    "title": "롯데백화점 건대스타시티점",
    "lat": 37.53898848285387,
    "lng": 127.07140517122609,
    "type": "building",
    "description": "롯데백화점 건대스타시티점 흡연구역입니다.",
    "images": ["https://via.placeholder.com/200x120?text=%EC%84%9C%EC%9A%B8%EC%97%AD+1%EB%B2%88%EC%B6%9C%EA%B5%AC"]
  },
  {
    "title": "커먼그라운드",
    "lat": 37.5410528468373,
    "lng": 127.06567318372998,
    "type": "building",
    "description": "커먼그라운드 3층 흡연구역입니다.",
    "images": ["https://via.placeholder.com/200x120?text=%EC%84%9C%EC%9A%B8%EC%97%AD+1%EB%B2%88%EC%B6%9C%EA%B5%AC"]
  },
  {
    "title": "테크노마트21",
    "lat": 37.535702950377505,
    "lng": 127.09565717252312,
    "type": "building",
    "description": "테크노마트21 흡연구역입니다.",
    "images": ["https://via.placeholder.com/200x120?text=%EC%84%9C%EC%9A%B8%EC%97%AD+1%EB%B2%88%EC%B6%9C%EA%B5%AC"]
  },
  {
    "title": "워커힐",
    "lat": 37.555191765762295,
    "lng": 127.11086988447865,
    "type": "building",
    "description": "워커힐 흡연구역입니다.",
    "images": ["images/IMG_6207.jpg"]
  },
  {
    "title": "탐앤탐스 블랙그레이트점",
    "lat": 37.53780468211785,
    "lng": 127.08972814405828,
    "type": "cafe",
    "description": "탐앤탐스 블랙그레이트점 ",
    "images": ["images/IMG_6207.jpg"]
  },
  {
    "title": "투썸플레이스 군자역점",
    "lat": 37.5557895,
    "lng": 127.0783384,
    "type": "cafe",
    "description": "투썸플레이스 군자역점",
    "images": ["images/IMG_6207.jpg"]
  },
  {
    "title": "카페오로시",
    "lat": 37.5395189,
    "lng": 127.0828446,
    "type": "cafe",
    "description": "카페오로시",
    "images": ["images/IMG_6207.jpg"]
  },
  {
    "title": "더이퀄리브리엄커피",
    "lat": 37.540358,
    "lng": 127.0678603,
    "type": "cafe",
    "description": "더이퀄리브리엄커피",
    "images": ["images/IMG_6207.jpg"]
  },
  {
    "title": "이디야",
    "lat": 37.5404164,
    "lng": 127.0676076,
    "type": "cafe",
    "description": "이디야",
    "images": ["images/IMG_6207.jpg"]
  },
  {
    "title": "탐앤탐스 탐스커버리건대점",
    "lat": 37.540039,
    "lng": 127.0693832,
    "type": "cafe",
    "description": "탐앤탐스 탐스커버리건대점",
    "images": ["images/IMG_6207.jpg"]
  },
  {
    "title": "카페온더플랜 건대점",
    "lat": 37.54516172327742,
    "lng": 127.07281138647267,
    "type": "cafe",
    "description": "카페온더플랜 건대점",
    "images": ["images/IMG_6207.jpg"]
  },
  {
    "title": "허니룸 건대점",
    "lat": 37.5413168,
    "lng": 127.0680945,
    "type": "cafe",
    "description": "허니룸 건대점",
    "images": ["images/IMG_6207.jpg"]
  },
  {
    "title": "꿈꾸다917",
    "lat": 37.54177822639368,
    "lng": 127.06947857863331,
    "type": "cafe",
    "description": "꿈꾸다917",
    "images": ["images/IMG_6207.jpg"]
  },
  {
    "title": "커피마켓",
    "lat": 37.5428753,
    "lng": 127.0711474,
    "type": "cafe",
    "description": "커피마켓",
    "images": ["images/IMG_6207.jpg"]
  },
  {
    "title": "카패베네 건대2호점",
    "lat": 37.5415506,
    "lng": 127.0667491,
    "type": "cafe",
    "description": "카패베네 건대2호점",
    "images": ["images/IMG_6207.jpg"]
  },
  {
    "title": "탐앤탐스 건대점",
    "lat": 37.540783,
    "lng": 127.0704664,
    "type": "cafe",
    "description": "탐앤탐스 건대점",
    "images": ["images/IMG_6207.jpg"]
  },
  {
    "title": "탐앤탐스 광진화양점",
    "lat": 37.54320778603184,
    "lng": 127.07078684356904,
    "type": "cafe",
    "description": "탐앤탐스 광진화양점",
    "images": ["images/IMG_6207.jpg"]
  },
  {
    "title": "동서울터미널 앞 전면보도",
    "lat": 37.5339173,
    "lng": 127.0935856,
    "type": "public",
    "description": "동서울터미널 앞 전면보도",
    "images": ["images/IMG_6207.jpg"]
  },
  {
    "title": "문정 현대지식산업센터",
    "lat": 37.4816698,
    "lng": 127.1206971,
    "type": "building",
    "description": "문정 현대지식산업센터",
    "images": ["https://via.placeholder.com/200x120?text=%EC%84%9C%EC%9A%B8%EC%97%AD+1%EB%B2%88%EC%B6%9C%EA%B5%AC"]
  },
  {
    "title": "가든파이브",
    "lat": 37.4776483,
    "lng": 127.1249964,
    "type": "building",
    "description": "가든파이브",
    "images": ["https://via.placeholder.com/200x120?text=%EC%84%9C%EC%9A%B8%EC%97%AD+1%EB%B2%88%EC%B6%9C%EA%B5%AC"]
  },
  {
    "title": "문정 SK V1 GL 메트로시티",
    "lat": 37.48399478887767,
    "lng": 127.12203721551815,
    "type": "building",
    "description": "문정 SK V1 GL 메트로시티",
    "images": ["https://via.placeholder.com/200x120?text=%EC%84%9C%EC%9A%B8%EC%97%AD+1%EB%B2%88%EC%B6%9C%EA%B5%AC"]
  },
  {
    "title": "서대문구청",
    "lat": 37.5791657,
    "lng": 126.9365919,
    "type": "public",
    "description": "서대문구청 1층 정자, 옥상 흡연구역입니다.",
    "images": ["https://via.placeholder.com/200x120?text=%EC%84%9C%EC%9A%B8%EC%97%AD+1%EB%B2%88%EC%B6%9C%EA%B5%AC"]
  },
  {
    "title": "현대백화점 유플렉스 신촌점",
    "lat": 37.5567652,
    "lng": 126.9365776,
    "type": "building",
    "description": "현대백화점 유플렉스 신촌점 옥상 흡연구역입니다.",
    "images": ["https://via.placeholder.com/200x120?text=%EC%84%9C%EC%9A%B8%EC%97%AD+1%EB%B2%88%EC%B6%9C%EA%B5%AC"]
  },
  {
    "title": "현대백화점 신촌점",
    "lat": 37.5561569,
    "lng": 126.9358839,
    "type": "building",
    "description": "현대백화점 신촌점 옥상 흡연구역입니다.",
    "images": ["https://via.placeholder.com/200x120?text=%EC%84%9C%EC%9A%B8%EC%97%AD+1%EB%B2%88%EC%B6%9C%EA%B5%AC"]
  },
  {
    "title": "을지로입구역 8번출구",
    "lat": 37.56580663986376,
    "lng": 126.98203124167959,
    "type": "public",
    "description": "을지로입구역 8번출구",
    "images": ["https://via.placeholder.com/200x120?text=%EC%84%9C%EC%9A%B8%EC%97%AD+1%EB%B2%88%EC%B6%9C%EA%B5%AC"]
  },
  {
    "title": "서울역 8번 출구",
    "lat": 37.556146355422314,
    "lng": 126.97353416304695,
    "type": "public",
    "description": "서울역 8번 출구",
    "images": ["https://via.placeholder.com/200x120?text=%EC%84%9C%EC%9A%B8%EC%97%AD+1%EB%B2%88%EC%B6%9C%EA%B5%AC"]
  },
  {
    "title": "롯데백화점 관악점 ",
    "lat": 37.49053869999999,
    "lng": 126.9250502,
    "type": "building",
    "description": "롯데백화점 관악점 건물 뒷편",
    "images": ["https://via.placeholder.com/200x120?text=%EC%84%9C%EC%9A%B8%EC%97%AD+1%EB%B2%88%EC%B6%9C%EA%B5%AC"]
  },
  {
    "title": "관악구청",
    "lat": 37.4782605,
    "lng": 126.9515208,
    "type": "public",
    "description": "관악구청 2층 테라스, 9층 옥상, 관악구의회 6층 옥상, 관악구 보건소 6층 옥상",
    "images": ["https://via.placeholder.com/200x120?text=%EC%84%9C%EC%9A%B8%EC%97%AD+1%EB%B2%88%EC%B6%9C%EA%B5%AC"]
  },
  {
    "title": "싱글벙글교육센터",
    "lat": 37.476102829580505,
    "lng": 126.95629065207913,
    "type": "building",
    "description": "싱글벙글교육센터 뒷편",
    "images": ["https://via.placeholder.com/200x120?text=%EC%84%9C%EC%9A%B8%EC%97%AD+1%EB%B2%88%EC%B6%9C%EA%B5%AC"]
  },
  {
    "title": "관악문화도서관",
    "lat": 37.4675139,
    "lng": 126.9448053,
    "type": "public",
    "description": "관악문화도서관",
    "images": ["https://via.placeholder.com/200x120?text=%EC%84%9C%EC%9A%B8%EC%97%AD+1%EB%B2%88%EC%B6%9C%EA%B5%AC"]
  },
  {
    "title": "타임스트림",
    "lat": 37.4838352,
    "lng": 126.9301737,
    "type": "building",
    "description": "타임스트림 옥상",
    "images": ["https://via.placeholder.com/200x120?text=%EC%84%9C%EC%9A%B8%EC%97%AD+1%EB%B2%88%EC%B6%9C%EA%B5%AC"]
  },
  {
    "title": "르네상스쇼핑몰",
    "lat": 37.4847684,
    "lng": 126.930087,
    "type": "building",
    "description": "르네상스쇼핑몰",
    "images": ["https://via.placeholder.com/200x120?text=%EC%84%9C%EC%9A%B8%EC%97%AD+1%EB%B2%88%EC%B6%9C%EA%B5%AC"]
  },
  {
    "title": "구로성심병원",
    "lat": 37.4996281,
    "lng": 126.8663767,
    "type": "building",
    "description": "구로성심병원",
    "images": ["https://via.placeholder.com/200x120?text=%EC%84%9C%EC%9A%B8%EC%97%AD+1%EB%B2%88%EC%B6%9C%EA%B5%AC"]
  },
  {
    "title": "고대구로병원",
    "lat": 37.4921086,
    "lng": 126.8847444,
    "type": "building",
    "description": "고대구로병원",
    "images": ["https://via.placeholder.com/200x120?text=%EC%84%9C%EC%9A%B8%EC%97%AD+1%EB%B2%88%EC%B6%9C%EA%B5%AC"]
  },
  {
    "title": "지하이시티",
    "lat": 37.4819677,
    "lng": 126.8922728,
    "type": "building",
    "description": "지하이시티",
    "images": ["https://via.placeholder.com/200x120?text=%EC%84%9C%EC%9A%B8%EC%97%AD+1%EB%B2%88%EC%B6%9C%EA%B5%AC"]
  },
  {
    "title": "신도림테크노마트",
    "lat": 37.5069735,
    "lng": 126.8903193,
    "type": "building",
    "description": "신도림테크노마트 북서쪽 철로변측 인도공간",
    "images": ["https://via.placeholder.com/200x120?text=%EC%84%9C%EC%9A%B8%EC%97%AD+1%EB%B2%88%EC%B6%9C%EA%B5%AC"]
  },
  {
    "title": "신도림역 2번 출구",
    "lat": 37.5087378,
    "lng": 126.891109,
    "type": "public",
    "description": "신도림역 2번 출구",
    "images": ["https://via.placeholder.com/200x120?text=%EC%84%9C%EC%9A%B8%EC%97%AD+1%EB%B2%88%EC%B6%9C%EA%B5%AC"]
  },
  {
    "title": "여의도역 3번 출구 흡연구역",
    "lat": 37.5225,
    "lng": 126.9238,
    "type": "public",
    "description": "여의도역 3번 출구 뒤쪽 흡연구역",
    "images": ["https://via.placeholder.com/200x120?text=%EC%84%9C%EC%9A%B8%EC%97%AD+1%EB%B2%88%EC%B6%9C%EA%B5%AC"]
  },
  {
    "title": "강북구의회",
    "lat": 37.6406309,
    "lng": 127.0141244,
    "type": "public",
    "description": "강북구의회 본관과 신관 사이에 위치한 흡연구역입니다.",
    "images": ["https://via.placeholder.com/200x120?text=%EC%84%9C%EC%9A%B8%EC%97%AD+1%EB%B2%88%EC%B6%9C%EA%B5%AC"]
  },
  {
    "title": "롯데백화점 미아점",
    "lat": 37.6142156,
    "lng": 127.030526,
    "type": "building",
    "description": "롯데백화점 미아점 건물 옥상에 위치한 흡연구역입니다.",
    "images": ["https://via.placeholder.com/200x120?text=%EC%84%9C%EC%9A%B8%EC%97%AD+1%EB%B2%88%EC%B6%9C%EA%B5%AC"]
  },
  {
    "title": "미즐 카페 엠",
    "lat": 37.6387503,
    "lng": 127.0289654,
    "type": "cafe",
    "description": "흡연실이 있는 '미즐 카페 엠'입니다.",
    "images": ["https://via.placeholder.com/200x120?text=%EC%84%9C%EC%9A%B8%EC%97%AD+1%EB%B2%88%EC%B6%9C%EA%B5%AC"]
  },
  {
    "title": "은평구립도서관",
    "lat": 37.6189263,
    "lng": 126.928039,
    "type": "public",
    "description": "은평구립도서관에 위치한 흡연구역입니다.",
    "images": ["https://via.placeholder.com/200x120?text=%EC%84%9C%EC%9A%B8%EC%97%AD+1%EB%B2%88%EC%B6%9C%EA%B5%AC"]
  },
  {
    "title": "이디야 연신내역점",
    "lat": 37.6189236,
    "lng": 126.9199065,
    "type": "cafe",
    "description": "흡연실이 있는 '이디야 연신내역점'입니다.",
    "images": ["https://via.placeholder.com/200x120?text=%EC%84%9C%EC%9A%B8%EC%97%AD+1%EB%B2%88%EC%B6%9C%EA%B5%AC"]
  },
  {
    "title": "더홀릭보드게임카페 연신내점",
    "lat": 37.6190126,
    "lng": 126.9186229,
    "type": "cafe",
    "description": "흡연실이 있는 '더홀릭보드게임카페 연신내점'입니다.",
    "images": ["https://via.placeholder.com/200x120?text=%EC%84%9C%EC%9A%B8%EC%97%AD+1%EB%B2%88%EC%B6%9C%EA%B5%AC"]
  },
  {
    "title": "아로이 커피 연신내점",
    "lat": 37.6182345,
    "lng": 126.9223909,
    "type": "cafe",
    "description": "흡연실이 있는 '아로이 커피 연신내점'입니다.",
    "images": ["https://via.placeholder.com/200x120?text=%EC%84%9C%EC%9A%B8%EC%97%AD+1%EB%B2%88%EC%B6%9C%EA%B5%AC"]
  },
  {
    "title": "읍천리382 응암점",
    "lat": 37.5982942,
    "lng": 126.921089,
    "type": "cafe",
    "description": "흡연실이 있는 '읍천리382 응암점'입니다.",
    "images": ["https://via.placeholder.com/200x120?text=%EC%84%9C%EC%9A%B8%EC%97%AD+1%EB%B2%88%EC%B6%9C%EA%B5%AC"]
  },
  {
    "title": "코피티암",
    "lat": 37.6175953,
    "lng": 126.9183922,
    "type": "cafe",
    "description": "흡연실이 있는 '코피티암'입니다.",
    "images": ["https://via.placeholder.com/200x120?text=%EC%84%9C%EC%9A%B8%EC%97%AD+1%EB%B2%88%EC%B6%9C%EA%B5%AC"]
  },
  {
    "title": "coffee 13 oz",
    "lat": 37.61461389999999,
    "lng": 126.9113039,
    "type": "cafe",
    "description": "흡연실이 있는 'coffee 13 oz'입니다.",
    "images": ["https://via.placeholder.com/200x120?text=%EC%84%9C%EC%9A%B8%EC%97%AD+1%EB%B2%88%EC%B6%9C%EA%B5%AC"]
  },
  {
    "title": "아로이 커피 녹번점",
    "lat": 37.6066474,
    "lng": 126.933078,
    "type": "cafe",
    "description": "흡연실이 있는 '아로이 커피 녹번점'입니다.",
    "images": ["https://via.placeholder.com/200x120?text=%EC%84%9C%EC%9A%B8%EC%97%AD+1%EB%B2%88%EC%B6%9C%EA%B5%AC"]
  }
]