[
  {
    "id": "",
    "title": "강북문화정보도서관 흡연구역",
    "address": "서울특별시 강북구 오현로 145",
    "lat": 37.6251153938762,
    "lng": 127.036079668809,
    "type": "public",
    "description": "강북문화정보도서관 주차장 옆에 위치한 흡연구역입니다.",
    "form": "폐쇄형",
    "images": [
      "images/흡연구역_이미지_예시.jpg"
    ],
    "source": "공공데이터",
    "manage": "강북문화정보도서관"
  },
  {
    "id": "",
    "title": "롯데백화점 미아점 흡연구역",
    "address": "서울특별시 강북구 도봉로 62",
    "lat": 37.6145929759749,
    "lng": 127.030517678336,
    "type": "building",
    "description": "롯데백화점 미아점 옥상에 위치한 흡연구역입니다.",
    "form": "폐쇄형",
    "images": [
      "images/흡연구역_이미지_예시.jpg"
    ],
    "source": "공공데이터",
    "manage": "롯데백화점"
  },
  {
    "id": "",
    "title": "미즐 카페 엠",
    "address": "서울특별시 강북구 한천로 1289",
    "lat": 0,
    "lng": 0,
    "type": "cafe",
    "description": "흡연실이 있는 '미즐 카페 엠'입니다.",
    "form": "페쇄형",
    "images": [
      "images/흡연구역_이미지_예시.jpg"
    ],
    "source": "공공데이터",
    "manage": "미즐 카페 엠"
  },
  {
    "id": "",
    "title": "강서구청 흡연구역",
    "address": "서울특별시 강서구 화곡로 302",
    "lat": 37.5509655144007,
    "lng": 126.849532173376,
    "type": "public",
    "description": "강서구청 주차장 뒤편에 위치한 흡연구역입니다.",
    "form": "",
    "images": [
      "images/흡연구역_이미지_예시.jpg"
    ],
    "source": "공공데이터",
    "manage": "강서구청"
  },
  {
    "id": "",
    "title": "강서구민회관 흡연구역",
    "address": "서울특별시 강서구 우장산로 66",
    "lat": 37.5534364240863,
    "lng": 126.843648918555,
    "type": "public",
    "description": "강서구민회관 1층에 위치한 흡연구역입니다.",
    "form": "",
    "images": [
      "images/흡연구역_이미지_예시.jpg"
    ],
    "source": "공공데이터",
    "manage": "강서구시설관리공단"
  },
  {
    "id": "",
    "title": "마곡실내배드민턴장 흡연구역",
    "address": "서울특별시 강서구 양천로 251 ",
    "lat": 37.5731554994777,
    "lng": 126.832148803205,
    "type": "public",
    "description": "마곡실내배드민턴장 1층 주차장 뒤편에 위치한 흡연구역입니다.",
    "form": "",
    "images": [
      "images/흡연구역_이미지_예시.jpg"
    ],
    "source": "공공데이터",
    "manage": "강서구시설관리공단"
  },
  {
    "id": "",
    "title": "김포공항화물청사 흡연구역",
    "address": "서울특별시 강서구 하늘길 111",
    "lat": 37.5605245028427,
    "lng": 126.804595865582,
    "type": "public",
    "description": "김포공항화물청사 1층 옥외에 위치한 흡연구역입니다.",
    "form": "",
    "images": [
      "images/흡연구역_이미지_예시.jpg"
    ],
    "source": "공공데이터",
    "manage": "공항공사"
  },
  {
    "id": "",
    "title": "김포공항국내선 흡연구역",
    "address": "서울특별시 강서구 하늘길 111",
    "lat": 37.5605245028427,
    "lng": 126.804595865582,
    "type": "public",
    "description": "김포공항국내선 옥외에 위치한 흡연구역입니다.",
    "form": "",
    "images": [
      "images/흡연구역_이미지_예시.jpg"
    ],
    "source": "공공데이터",
    "manage": "공항공사"
  },
  {
    "id": "",
    "title": "김포공항국제선 흡연구역",
    "address": "서울특별시 강서구 하늘길 38",
    "lat": 37.5713695798026,
    "lng": 126.802960133589,
    "type": "public",
    "description": "김포공항국제선 옥외에 위치한 흡연구역입니다.",
    "form": "",
    "images": [
      "images/흡연구역_이미지_예시.jpg"
    ],
    "source": "공공데이터",
    "manage": "공항공사"
  },
  {
    "id": "",
    "title": "에이치플러스양지병원 흡연구역",
    "address": "서울특별시 관악구 남부순환로 1636",
    "lat": 37.4843693309109,
    "lng": 126.932565485407,
    "type": "building",
    "description": "에이치플러스양지병원 옥상에 위치한 흡연구역입니다.",
    "form": "개방형",
    "images": [
      "images/흡연구역_이미지_예시.jpg"
    ],
    "source": "공공데이터",
    "manage": "양지병원"
  },
  {
    "id": "",
    "title": "롯데백화점 관악점 흡연구역",
    "address": "서울특별시 관악구 봉천로 209",
    "lat": 37.4904954867064,
    "lng": 126.924981674031,
    "type": "building",
    "description": "롯데백화점 관악점 건물 뒷편에 위치한 흡연구역입니다.",
    "form": "페쇄형",
    "images": [
      "images/흡연구역_이미지_예시.jpg"
    ],
    "source": "공공데이터",
    "manage": "롯데백화점 관악점"
  },
  {
    "id": "",
    "title": "관악구청 흡연구역",
    "address": "서울특별시 관악구 관악로 145",
    "lat": 37.4782106746327,
    "lng": 126.951501244173,
    "type": "public",
    "description": "관악구청 2층 테라스에 위치한 흡연구역입니다.",
    "form": "폐쇄형",
    "images": [
      "images/흡연구역_이미지_예시.jpg"
    ],
    "source": "공공데이터",
    "manage": "관악구청"
  },
  {
    "id": "",
    "title": "관악구청 흡연구역",
    "address": "서울특별시 관악구 관악로 145",
    "lat": 37.4782106746327,
    "lng": 126.951501244173,
    "type": "public",
    "description": "관악구청 9층 옥상에 위치한 흡연구역입니다.",
    "form": "개방형",
    "images": [
      "images/흡연구역_이미지_예시.jpg"
    ],
    "source": "공공데이터",
    "manage": "관악구청"
  },
  {
    "id": "",
    "title": "관악구 보건소 흡연구역",
    "address": "서울특별시 관악구 관악로 145",
    "lat": 37.4782106746327,
    "lng": 126.951501244173,
    "type": "public",
    "description": "관악구의회 6층 옥상에 위치한 흡연구역입니다.",
    "form": "개방형",
    "images": [
      "images/흡연구역_이미지_예시.jpg"
    ],
    "source": "공공데이터",
    "manage": "관악구청"
  },
  {
    "id": "",
    "title": "관악구의회 흡연구역",
    "address": "서울특별시 관악구 관악로 145",
    "lat": 37.4782106746327,
    "lng": 126.951501244173,
    "type": "public",
    "description": "관악구 보건소 6층 옥상에 위치한 흡연구역입니다.",
    "form": "개방형",
    "images": [
      "images/흡연구역_이미지_예시.jpg"
    ],
    "source": "공공데이터",
    "manage": "관악구청"
  },
  {
    "id": "",
    "title": "싱글벙글센터 흡연구역",
    "address": "서울특별시 관악구 남부순환로 234길 73",
    "lat": 37.4760962512417,
    "lng": 126.956288055678,
    "type": "public",
    "description": "싱글벙글센터 뒷편에 위치한 흡연구역입니다.",
    "form": "폐쇄형",
    "images": [
      "images/흡연구역_이미지_예시.jpg"
    ],
    "source": "공공데이터",
    "manage": "관악구청"
  },
  {
    "id": "",
    "title": "강남고려병원 흡연구역",
    "address": "서울특별시 관악구 관악로 242",
    "lat": 37.4856188363947,
    "lng": 126.956781703053,
    "type": "building",
    "description": "강남고려병원 주차장에 위치한 흡연구역입니다.",
    "form": "개방형",
    "images": [
      "images/흡연구역_이미지_예시.jpg"
    ],
    "source": "공공데이터",
    "manage": "강남고려병원"
  },
  {
    "id": "",
    "title": "관악문화관도서관 흡연구역",
    "address": "서울특별시 관악구 신림로3길 35",
    "lat": 37.4675533645757,
    "lng": 126.944962394132,
    "type": "public",
    "description": "관악문화관도서관 흡연구역입니다.",
    "form": "폐쇄형",
    "images": [
      "images/흡연구역_이미지_예시.jpg"
    ],
    "source": "공공데이터",
    "manage": "관악구청"
  },
  {
    "id": "",
    "title": "타임스트림 흡연구역",
    "address": "서울특별시 관악구 신림로 330",
    "lat": 37.4838513393186,
    "lng": 126.930234545397,
    "type": "building",
    "description": "타임스트림 옥상에 위치한 흡연구역입니다.",
    "form": "개방형",
    "images": [
      "images/흡연구역_이미지_예시.jpg"
    ],
    "source": "공공데이터",
    "manage": "타임스트림"
  },
  {
    "id": "",
    "title": "르네상스쇼핑몰 흡연구역",
    "address": "서울특별시 관악구 신림로 340",
    "lat": 37.4847625375982,
    "lng": 126.930096548294,
    "type": "building",
    "description": "르네상스쇼핑몰 흡연구역입니다.",
    "form": "개방형",
    "images": [
      "images/흡연구역_이미지_예시.jpg"
    ],
    "source": "공공데이터",
    "manage": "르네상스쇼핑몰"
  },
  {
    "id": "",
    "title": "동서울종합터미널 흡연구역",
    "address": "서울특별시 광진구 구의동 546-1",
    "lat": 37.5339176560567,
    "lng": 127.093585434282,
    "type": "building",
    "description": "동서울종합터미널 앞에 위치한 흡연구역입니다.",
    "form": "반개방형",
    "images": [
      "images/흡연구역_이미지_예시.jpg"
    ],
    "source": "공공데이터",
    "manage": "청소과"
  },
  {
    "id": "",
    "title": "광진구청 흡연구역",
    "address": "서울특별시 광진구 자양1동 777",
    "lat": 37.5383979954125,
    "lng": 127.082428688031,
    "type": "public",
    "description": "광진구청 흡연구역입니다.",
    "form": "개방형",
    "images": [
      "images/흡연구역_이미지_예시.jpg"
    ],
    "source": "공공데이터",
    "manage": ""
  },
  {
    "id": "",
    "title": "광진구청 흡연구역",
    "address": "서울특별시 광진구 자양1동 778",
    "lat": 0,
    "lng": 0,
    "type": "public",
    "description": "광진구청 흡연구역입니다.",
    "form": "개방형",
    "images": [
      "images/흡연구역_이미지_예시.jpg"
    ],
    "source": "공공데이터",
    "manage": ""
  },
  {
    "id": "",
    "title": "광진구청 흡연구역",
    "address": "서울특별시 광진구 자양1동 779",
    "lat": 37.5375239543766,
    "lng": 127.082272036701,
    "type": "public",
    "description": "광진구청 흡연구역입니다.",
    "form": "개방형",
    "images": [
      "images/흡연구역_이미지_예시.jpg"
    ],
    "source": "공공데이터",
    "manage": ""
  },
  {
    "id": "",
    "title": "화양동 주민자치센터 흡연구역",
    "address": "서울특별시 광진구 화양동 132-68",
    "lat": 37.5462710059779,
    "lng": 127.070480248872,
    "type": "public",
    "description": "화양동 주민자치센터 흡연구역입니다.",
    "form": "개방형",
    "images": [
      "images/흡연구역_이미지_예시.jpg"
    ],
    "source": "공공데이터",
    "manage": ""
  },
  {
    "id": "",
    "title": "아차산배수지체육공원 흡연구역",
    "address": "서울특별시 광진구 천호대로 731",
    "lat": 0,
    "lng": 0,
    "type": "public",
    "description": "아차산배수지체육공원 흡연구역입니다.",
    "form": "폐쇄형",
    "images": [
      "images/흡연구역_이미지_예시.jpg"
    ],
    "source": "공공데이터",
    "manage": ""
  },
  {
    "id": "",
    "title": "보건복지행정타운 흡연구역",
    "address": "서울특별시 광진구 용마산로 127",
    "lat": 37.5650862337223,
    "lng": 127.085776641765,
    "type": "public",
    "description": "보건복지행정타운 흡연구역입니다.",
    "form": "개방형",
    "images": [
      "images/흡연구역_이미지_예시.jpg"
    ],
    "source": "공공데이터",
    "manage": ""
  },
  {
    "id": "",
    "title": "세종대학교 흡연구역",
    "address": "서울특별시 광진구 능동로 213",
    "lat": 0,
    "lng": 0,
    "type": "building",
    "description": "세종대학교 흡연구역입니다.",
    "form": "개방형",
    "images": [
      "images/흡연구역_이미지_예시.jpg"
    ],
    "source": "공공데이터",
    "manage": ""
  },
  {
    "id": "",
    "title": "건국대학교 인문학관 흡연구역",
    "address": "서울특별시 광진구 능동로 120",
    "lat": 37.539182674872,
    "lng": 127.074711902268,
    "type": "building",
    "description": "건국대학교 인문학관 흡연구역입니다.",
    "form": "개방형",
    "images": [
      "images/흡연구역_이미지_예시.jpg"
    ],
    "source": "공공데이터",
    "manage": ""
  },
  {
    "id": "",
    "title": "국립정신건강센터 흡연구역",
    "address": "서울특별시 광진구 용마산로 127",
    "lat": 37.5650862337223,
    "lng": 127.085776641765,
    "type": "public",
    "description": "국립정신건강센터 흡연구역입니다.",
    "form": "개방형",
    "images": [
      "images/흡연구역_이미지_예시.jpg"
    ],
    "source": "공공데이터",
    "manage": ""
  },
  {
    "id": "",
    "title": "세종대학교 대양홀 흡연구역",
    "address": "서울특별시 광진구 능동로 209",
    "lat": 37.5516093089619,
    "lng": 127.07318364213,
    "type": "building",
    "description": "세종대학교 대양홀 흡연구역입니다.",
    "form": "개방형",
    "images": [
      "images/흡연구역_이미지_예시.jpg"
    ],
    "source": "공공데이터",
    "manage": ""
  },
  {
    "id": "",
    "title": "유니버설아트센터 흡연구역",
    "address": "서울특별시 광진구 천호대로 664",
    "lat": 37.5509798002896,
    "lng": 127.087095159462,
    "type": "building",
    "description": "유니버설아트센터 흡연구역입니다.",
    "form": "페쇄형",
    "images": [
      "images/흡연구역_이미지_예시.jpg"
    ],
    "source": "공공데이터",
    "manage": ""
  },
  {
    "id": "",
    "title": "건국대학교새천년관 대공연장 흡연구역",
    "address": "서울특별시 광진구 능동로 120",
    "lat": 37.539182674872,
    "lng": 127.074711902268,
    "type": "building",
    "description": "건국대학교새천년관 대공연장 흡연구역입니다.",
    "form": "폐쇄형",
    "images": [
      "images/흡연구역_이미지_예시.jpg"
    ],
    "source": "공공데이터",
    "manage": ""
  },
  {
    "id": "",
    "title": "세종대학교 학생회관 대공연장 흡연구역",
    "address": "서울특별시 광진구 능동로 209",
    "lat": 37.5516093089619,
    "lng": 127.07318364213,
    "type": "building",
    "description": "세종대학교 학생회관 대공연장 흡연구역입니다.",
    "form": "폐쇄형",
    "images": [
      "images/흡연구역_이미지_예시.jpg"
    ],
    "source": "공공데이터",
    "manage": ""
  },
  {
    "id": "",
    "title": "이마트 자양점 흡연구역",
    "address": "서울특별시 광진구 아차산로 272",
    "lat": 37.5385582736952,
    "lng": 127.072996184863,
    "type": "building",
    "description": "이마트 자양점 흡연구역입니다.",
    "form": "개방형",
    "images": [
      "images/흡연구역_이미지_예시.jpg"
    ],
    "source": "공공데이터",
    "manage": ""
  },
  {
    "id": "",
    "title": "롯데백화점 건대스타시티점",
    "address": "서울특별시 광진구 능동로 92",
    "lat": 37.5390373908314,
    "lng": 127.071432147214,
    "type": "building",
    "description": "롯데백화점 건대스타시티점입니다.",
    "form": "개방형",
    "images": [
      "images/흡연구역_이미지_예시.jpg"
    ],
    "source": "공공데이터",
    "manage": ""
  },
  {
    "id": "",
    "title": "커먼그라운드 흡연구역",
    "address": "서울특별시 광진구 아차산로 200",
    "lat": 37.5410566332301,
    "lng": 127.065669226745,
    "type": "building",
    "description": "커먼그라운드 3층에 위치한 흡연구역입니다.",
    "form": "폐쇄형",
    "images": [
      "images/흡연구역_이미지_예시.jpg"
    ],
    "source": "공공데이터",
    "manage": ""
  },
  {
    "id": "",
    "title": "테크노마트 흡연구역",
    "address": "서울특별시 광진구 광나루로 85",
    "lat": 0,
    "lng": 0,
    "type": "building",
    "description": "테크노마트 흡연구역입니다.",
    "form": "개방형",
    "images": [
      "images/흡연구역_이미지_예시.jpg"
    ],
    "source": "공공데이터",
    "manage": ""
  },
  {
    "id": "",
    "title": "탐앤탐스 블랙그레이트점",
    "address": "서울특별시 광진구 아차산로 426",
    "lat": 37.537808088884,
    "lng": 127.089750551178,
    "type": "cafe",
    "description": "흡연실이 있는 '탐앤탐스 블랙그레이트점'입니다.",
    "form": "폐쇄형",
    "images": [
      "images/흡연구역_이미지_예시.jpg"
    ],
    "source": "공공데이터",
    "manage": ""
  },
  {
    "id": "",
    "title": "꽃빙(동서울종합터미널 2층)",
    "address": "서울특별시 광진구 강변역로 50",
    "lat": 37.5345385101597,
    "lng": 127.094184050922,
    "type": "cafe",
    "description": "흡연실이 있는 '꽃빙'입니다.",
    "form": "폐쇄형",
    "images": [
      "images/흡연구역_이미지_예시.jpg"
    ],
    "source": "공공데이터",
    "manage": ""
  },
  {
    "id": "",
    "title": "투썸플레이스 군자역점",
    "address": "서울특별시 광진구 능동로 289",
    "lat": 37.5557904109818,
    "lng": 127.078344497368,
    "type": "cafe",
    "description": "흡연실이 있는 '투썸플레이스 군자역점'입니다.",
    "form": "폐쇄형",
    "images": [
      "images/흡연구역_이미지_예시.jpg"
    ],
    "source": "공공데이터",
    "manage": ""
  },
  {
    "id": "",
    "title": "카페오로시",
    "address": "서울특별시 광진구 자양로 131",
    "lat": 37.5394776891691,
    "lng": 127.082907026695,
    "type": "cafe",
    "description": "흡연실이 있는 '카페오로시'입니다.",
    "form": "폐쇄형",
    "images": [
      "images/흡연구역_이미지_예시.jpg"
    ],
    "source": "공공데이터",
    "manage": ""
  },
  {
    "id": "",
    "title": "다트프린스 건대점",
    "address": "서울특별시 광진구 아차산로 242",
    "lat": 37.5399325479221,
    "lng": 127.069903667359,
    "type": "cafe",
    "description": "흡연실이 있는 '다트프린스 건대점'입니다.",
    "form": "폐쇄형",
    "images": [
      "images/흡연구역_이미지_예시.jpg"
    ],
    "source": "공공데이터",
    "manage": ""
  },
  {
    "id": "",
    "title": "더이퀄리브리엄커피",
    "address": "서울특별시 광진구 아차산로30길 7",
    "lat": 37.5403541616654,
    "lng": 127.067833632739,
    "type": "cafe",
    "description": "흡연실이 있는 '더이퀄리브리엄커피'입니다.",
    "form": "개방형",
    "images": [
      "images/흡연구역_이미지_예시.jpg"
    ],
    "source": "공공데이터",
    "manage": ""
  },
  {
    "id": "",
    "title": "카페온더플랜 건대점",
    "address": "서울특별시 광진구 능동로 161",
    "lat": 37.5452314740878,
    "lng": 127.072789501681,
    "type": "cafe",
    "description": "흡연실이 있는 '카페온더플랜 건대점'입니다.",
    "form": "폐쇄형",
    "images": [
      "images/흡연구역_이미지_예시.jpg"
    ],
    "source": "공공데이터",
    "manage": ""
  },
  {
    "id": "",
    "title": "꿈꾸다 917",
    "address": "서울특별시 광진구 아차산로 31길 15",
    "lat": 37.5417865132484,
    "lng": 127.069482546667,
    "type": "cafe",
    "description": "흡연실이 있는 '꿈꾸다 917'입니다.",
    "form": "폐쇄형",
    "images": [
      "images/흡연구역_이미지_예시.jpg"
    ],
    "source": "공공데이터",
    "manage": ""
  },
  {
    "id": "",
    "title": "커피마켓",
    "address": "서울특별시 광진구 아차산로33길 60",
    "lat": 37.5428701496604,
    "lng": 127.071139792136,
    "type": "cafe",
    "description": "흡연실이 있는 '커피마켓'입니다.",
    "form": "폐쇄형",
    "images": [
      "images/흡연구역_이미지_예시.jpg"
    ],
    "source": "공공데이터",
    "manage": ""
  },
  {
    "id": "",
    "title": "탐앤탐스 광진화양점",
    "address": "서울특별시 광진구 능동로 13길 26",
    "lat": 37.5432286879772,
    "lng": 127.070788900119,
    "type": "cafe",
    "description": "흡연실이 있는 '탐앤탐스 광진화양점'입니다.",
    "form": "폐쇄형",
    "images": [
      "images/흡연구역_이미지_예시.jpg"
    ],
    "source": "공공데이터",
    "manage": ""
  },
  {
    "id": "",
    "title": "놀숲 건대점",
    "address": "서울특별시 광진구 아차산로 224",
    "lat": 37.5405711604806,
    "lng": 127.068080611331,
    "type": "cafe",
    "description": "흡연실이 있는 '놀숲 건대점'입니다.",
    "form": "폐쇄형",
    "images": [
      "images/흡연구역_이미지_예시.jpg"
    ],
    "source": "공공데이터",
    "manage": ""
  },
  {
    "id": "",
    "title": "만화카페 라이브러리",
    "address": "서울특별시 광진구 아차산로 370",
    "lat": 37.5364473570775,
    "lng": 127.084052089481,
    "type": "cafe",
    "description": "흡연실이 있는 '만화카페 라이브러리'입니다.",
    "form": "폐쇄형",
    "images": [
      "images/흡연구역_이미지_예시.jpg"
    ],
    "source": "공공데이터",
    "manage": ""
  },
  {
    "id": "",
    "title": "고척돔구장 흡연구역",
    "address": "서울특별시 구로구 경인로 430",
    "lat": 37.4982125677913,
    "lng": 126.867088741096,
    "type": "building",
    "description": "고척돔구장 흡연구역입니다.",
    "form": "",
    "images": [
      "images/흡연구역_이미지_예시.jpg"
    ],
    "source": "공공데이터",
    "manage": ""
  },
  {
    "id": "",
    "title": "구로성심병원 흡연구역",
    "address": "서울특별시 구로구 경인로 427",
    "lat": 37.4996468654605,
    "lng": 126.866358244952,
    "type": "building",
    "description": "구로성심병원 흡연구역입니다.",
    "form": "",
    "images": [
      "images/흡연구역_이미지_예시.jpg"
    ],
    "source": "공공데이터",
    "manage": ""
  },
  {
    "id": "",
    "title": "고대구로병원 흡연구역",
    "address": "서울특별시 구로구 구로동로 148",
    "lat": 37.4911503253664,
    "lng": 126.884511034177,
    "type": "building",
    "description": "고대구로병원 흡연구역입니다.",
    "form": "",
    "images": [
      "images/흡연구역_이미지_예시.jpg"
    ],
    "source": "공공데이터",
    "manage": ""
  },
  {
    "id": "",
    "title": "지하이시티 흡연구역",
    "address": "서울특별시 구로구 구로동 237",
    "lat": 37.4819554025522,
    "lng": 126.892280813777,
    "type": "building",
    "description": "지하이시티 흡연구역입니다.",
    "form": "",
    "images": [
      "images/흡연구역_이미지_예시.jpg"
    ],
    "source": "공공데이터",
    "manage": ""
  },
  {
    "id": "",
    "title": "신도림테크노마트 흡연구역",
    "address": "서울특별시 구로구 구로동 3-25",
    "lat": 37.5069739187173,
    "lng": 126.890319120085,
    "type": "building",
    "description": "신도림테크노마트 북서족 철로변측 인도공간에 위치한 흡연구역입니다.",
    "form": "",
    "images": [
      "images/흡연구역_이미지_예시.jpg"
    ],
    "source": "공공데이터",
    "manage": ""
  },
  {
    "id": "",
    "title": "신도림역 2번 출구 흡연구역",
    "address": "서울특별시 구로구 신도림동 460-26",
    "lat": 37.5087389965473,
    "lng": 126.891109048536,
    "type": "public",
    "description": "신도림역 2번 출구에 위치한 흡연구역입니다.",
    "form": "",
    "images": [
      "images/흡연구역_이미지_예시.jpg"
    ],
    "source": "공공데이터",
    "manage": ""
  },
  {
    "id": "",
    "title": "중계근린공원 흡연구역",
    "address": "서울특별시 노원구 중계동 507",
    "lat": 37.6395702224085,
    "lng": 127.065167808935,
    "type": "public",
    "description": "중계근린공원 주차장에 위치한 흡연구역입니다.",
    "form": "반개방형",
    "images": [
      "images/흡연구역_이미지_예시.jpg"
    ],
    "source": "공공데이터",
    "manage": ""
  },
  {
    "id": "",
    "title": "등나무문화공원 흡연구역",
    "address": "서울특별시 노원구 중계동 508-1",
    "lat": 37.6402845396458,
    "lng": 127.067698351197,
    "type": "public",
    "description": "등나무문화공원 주차장에 위치한 흡연구역입니다.",
    "form": "폐쇄형",
    "images": [
      "images/흡연구역_이미지_예시.jpg"
    ],
    "source": "공공데이터",
    "manage": ""
  },
  {
    "id": "",
    "title": "동대문구청 흡연구역",
    "address": "서울특별시 동대문구 천호대로 145",
    "lat": 37.5743917161622,
    "lng": 127.039896580148,
    "type": "public",
    "description": "동대문구청 1층과 5층에 위치한 흡연구역입니다.",
    "form": "개방형",
    "images": [
      "images/흡연구역_이미지_예시.jpg"
    ],
    "source": "공공데이터",
    "manage": ""
  },
  {
    "id": "",
    "title": "경희의료원 흡연구역",
    "address": "서울특별시 동대문구 경희대로 23",
    "lat": 37.5937762050989,
    "lng": 127.050741696591,
    "type": "building",
    "description": "경희의료원 1층에 위치한 흡연구역입니다.",
    "form": "개방형",
    "images": [
      "images/흡연구역_이미지_예시.jpg"
    ],
    "source": "공공데이터",
    "manage": ""
  },
  {
    "id": "",
    "title": "삼육서울병원 흡연구역",
    "address": "서울특별시 동대문구 망우로82",
    "lat": 37.5862119387672,
    "lng": 127.06355328121,
    "type": "building",
    "description": "삼육서울병원 1층에 위치한 흡연구역입니다.",
    "form": "폐쇄형",
    "images": [
      "images/흡연구역_이미지_예시.jpg"
    ],
    "source": "공공데이터",
    "manage": ""
  },
  {
    "id": "",
    "title": "노량진컵밥거리 흡연구역",
    "address": "서울특별시 동작구 노량진동 148-87",
    "lat": 37.5135121968465,
    "lng": 126.945292650858,
    "type": "public",
    "description": "노량진컵밥거리 흡연구역입니다.",
    "form": "",
    "images": [
      "images/흡연구역_이미지_예시.jpg"
    ],
    "source": "공공데이터",
    "manage": "동작구 보건소 건강증진과"
  },
  {
    "id": "",
    "title": "마포농수산물시장 흡연구역",
    "address": "서울특별시 마포구 성산2동 533-1",
    "lat": 37.5650863361341,
    "lng": 126.898138678404,
    "type": "public",
    "description": "마포농수산물시장 흡연구역입니다.",
    "form": "개방형",
    "images": [
      "images/흡연구역_이미지_예시.jpg"
    ],
    "source": "공공데이터",
    "manage": ""
  },
  {
    "id": "",
    "title": "서부운전면허시험장 흡연구역",
    "address": "서울특별시 마포구 월드컵로42길 13",
    "lat": 37.5787580201272,
    "lng": 126.880806276364,
    "type": "public",
    "description": "서부운전면허시험장 흡연구역입니다.",
    "form": "개방형",
    "images": [
      "images/흡연구역_이미지_예시.jpg"
    ],
    "source": "공공데이터",
    "manage": ""
  },
  {
    "id": "",
    "title": "마포구청 흡연구역",
    "address": "서울특별시 마포구 월드컵로 212",
    "lat": 37.5663128370109,
    "lng": 126.901615668932,
    "type": "public",
    "description": "마포구청 흡연구역입니다.",
    "form": "폐쇄형",
    "images": [
      "images/흡연구역_이미지_예시.jpg"
    ],
    "source": "공공데이터",
    "manage": ""
  },
  {
    "id": "",
    "title": "상암동 흡연구역",
    "address": "서울특별시 마포구 상암산로 66",
    "lat": 37.5783960630744,
    "lng": 126.891522106224,
    "type": "public",
    "description": "상암동 흡연구역입니다.",
    "form": "",
    "images": [
      "images/흡연구역_이미지_예시.jpg"
    ],
    "source": "공공데이터",
    "manage": ""
  },
  {
    "id": "",
    "title": "서대문구청 흡연구역",
    "address": "서울특별시 서대문구 연희로 248",
    "lat": 37.5791546257808,
    "lng": 126.936759175119,
    "type": "public",
    "description": "서대문구청 옥상에 위치한 흡연구역입니다.",
    "form": "폐쇄형",
    "images": [
      "images/흡연구역_이미지_예시.jpg"
    ],
    "source": "공공데이터",
    "manage": ""
  },
  {
    "id": "",
    "title": "서대문구청 흡연구역",
    "address": "서울특별시 서대문구 연희로 248",
    "lat": 37.5791546257808,
    "lng": 126.936759175119,
    "type": "public",
    "description": "서대문구청 1층 정자에 위치한 흡연구역입니다.",
    "form": "개방형",
    "images": [
      "images/흡연구역_이미지_예시.jpg"
    ],
    "source": "공공데이터",
    "manage": ""
  },
  {
    "id": "",
    "title": "연세세브란스병원 흡연구역",
    "address": "서울특별시 서대문구 연세로 50-1",
    "lat": 37.563674036531,
    "lng": 126.941917689273,
    "type": "building",
    "description": "세브란스병원 장례식장 1층에 위치한 흡연구역입니다.",
    "form": "폐쇄형",
    "images": [
      "images/흡연구역_이미지_예시.jpg"
    ],
    "source": "공공데이터",
    "manage": ""
  },
  {
    "id": "",
    "title": "명지대학교 기숙사 흡연구역",
    "address": "서울특별시 서대문구 거북골로34",
    "lat": 37.5803770223812,
    "lng": 126.921348530876,
    "type": "building",
    "description": "명지대학교 1층 기숙사 옆에 위치한 흡연구역입니다.",
    "form": "폐쇄형",
    "images": [
      "images/흡연구역_이미지_예시.jpg"
    ],
    "source": "공공데이터",
    "manage": ""
  },
  {
    "id": "",
    "title": "현대백화점 유플렉스 신촌점 흡연구역",
    "address": "서울특별시 서대문구 연세로 13",
    "lat": 37.5567378385686,
    "lng": 126.936559696179,
    "type": "building",
    "description": "현대백화점 유플렉스 신촌점 옥상에 위치한 흡연구역입니다.",
    "form": "개방형",
    "images": [
      "images/흡연구역_이미지_예시.jpg"
    ],
    "source": "공공데이터",
    "manage": ""
  },
  {
    "id": "",
    "title": "현대백화점 신촌점 흡연구역",
    "address": "서울특별시 서대문구 신촌로83",
    "lat": 37.5560830579515,
    "lng": 126.935844876509,
    "type": "building",
    "description": "현대백화점 신촌점 옥상에 위치한 흡연구역입니다.",
    "form": "개방형",
    "images": [
      "images/흡연구역_이미지_예시.jpg"
    ],
    "source": "공공데이터",
    "manage": ""
  },
  {
    "id": "",
    "title": "교보타워 주자창 흡연구역",
    "address": "서울특별시 서초구 강남대로 465",
    "lat": 37.5037560541254,
    "lng": 127.024109539913,
    "type": "building",
    "description": "교보타워 부지주차장 진입로 옆 흡연구역입니다.",
    "form": "개방형",
    "images": [
      "images/흡연구역_이미지_예시.jpg"
    ],
    "source": "공공데이터",
    "manage": "교보타워"
  },
  {
    "id": "",
    "title": "엘타워 흡연구역",
    "address": "서울특별시 서초구 강남대로 213",
    "lat": 37.4827666361943,
    "lng": 127.034949554107,
    "type": "building",
    "description": "엘타워 뒤 주차장 진입로 옆 흡연구역입니다.",
    "form": "개방형",
    "images": [
      "images/흡연구역_이미지_예시.jpg"
    ],
    "source": "공공데이터",
    "manage": "엘타워"
  },
  {
    "id": "",
    "title": "서울가정행정법원 흡연구역",
    "address": "서울특별시 서초구 강남대로 193",
    "lat": 37.4812445490019,
    "lng": 127.036189806462,
    "type": "building",
    "description": "서울가정행정법원 청사 출입계단 밑 흡연구역입니다.",
    "form": "반개방형",
    "images": [
      "images/흡연구역_이미지_예시.jpg"
    ],
    "source": "공공데이터",
    "manage": "서울가정법원"
  },
  {
    "id": "",
    "title": "고속버스터미널역 3번출구 흡연구역",
    "address": "서울특별시 서초구 반포동 19-11",
    "lat": 37.5048497116637,
    "lng": 127.00487538273,
    "type": "building",
    "description": "고속버스터미널역 3번출구 앞에 위치한 흡연구역입니다.",
    "form": "반개방형",
    "images": [
      "images/흡연구역_이미지_예시.jpg"
    ],
    "source": "공공데이터",
    "manage": "센트럴시티"
  },
  {
    "id": "",
    "title": "강남역 흡연구역",
    "address": "서울특별시 서초구 서초동 1319-5",
    "lat": 37.4973255149592,
    "lng": 127.027281332446,
    "type": "public",
    "description": "강남역 7번 출구와 8번 출구 사이 보도에 위치한 흡연구역입니다.",
    "form": "개방형",
    "images": [
      "images/흡연구역_이미지_예시.jpg"
    ],
    "source": "공공데이터",
    "manage": "서초구 보건소, 청소행정과"
  },
  {
    "id": "",
    "title": "방배역 흡연구역",
    "address": "서울특별시 서초구 방배동 910-9",
    "lat": 37.482179531164,
    "lng": 126.996886364723,
    "type": "public",
    "description": "방배역 3번 출구 먹자골목 입구에 위치한 흡연구역입니다.",
    "form": "개방형",
    "images": [
      "images/흡연구역_이미지_예시.jpg"
    ],
    "source": "공공데이터",
    "manage": "서초구 보건소, 청소행정과"
  },
  {
    "id": "",
    "title": "스타벅스 앞 흡연구역",
    "address": "서울특별시 서초구 서초동 1327-5",
    "lat": 37.4956241314633,
    "lng": 127.027722755059,
    "type": "public",
    "description": "스타벅스 앞에 위치한 흡연구역입니다.",
    "form": "개방형",
    "images": [
      "images/흡연구역_이미지_예시.jpg"
    ],
    "source": "공공데이터",
    "manage": "서초구 보건소, 청소행정과"
  },
  {
    "id": "",
    "title": "현대기림오피스텔 흡연구역",
    "address": "서울특별시 서초구 서초동 1330-18",
    "lat": 37.4940028900643,
    "lng": 127.028353936967,
    "type": "building",
    "description": "현대기림오피스텔 앞에 위치한 흡연구역입니다.",
    "form": "개방형",
    "images": [
      "images/흡연구역_이미지_예시.jpg"
    ],
    "source": "공공데이터",
    "manage": "서초구 보건소, 청소행정과"
  },
  {
    "id": "",
    "title": "명동칼국수 앞 흡연구역",
    "address": "서울특별시 서초구 방배동 450-14",
    "lat": 37.4777565547075,
    "lng": 126.982987206043,
    "type": "public",
    "description": "방배천 복개도로 명동칼국수 앞에 위치한 흡연구역입니다.",
    "form": "개방형",
    "images": [
      "images/흡연구역_이미지_예시.jpg"
    ],
    "source": "공공데이터",
    "manage": "서초구 보건소, 청소행정과"
  },
  {
    "id": "",
    "title": "서희타워 옆 흡연구역",
    "address": "서울특별시 서초구 서초동 1366-4",
    "lat": 37.4849093722837,
    "lng": 127.03290087608,
    "type": "public",
    "description": "서희타워 옆 이면도로에 위치한 흡연구역입니다.",
    "form": "라인형",
    "images": [
      "images/흡연구역_이미지_예시.jpg"
    ],
    "source": "공공데이터",
    "manage": "서초구 보건소, 서희빌딩"
  },
  {
    "id": "",
    "title": "센트럴시티 호남선 흡연구역",
    "address": "서울특별시 서초구 신반포로 176",
    "lat": 37.5039351769908,
    "lng": 127.002413006799,
    "type": "building",
    "description": "센트럴시티 호남선 출입구 옆에 위치한 흡연구역입니다.",
    "form": "반개방형",
    "images": [
      "images/흡연구역_이미지_예시.jpg"
    ],
    "source": "공공데이터",
    "manage": "센트럴시티, 센트럴시티"
  },
  {
    "id": "",
    "title": "서초종합체육센터 흡연구역",
    "address": "서울특별시 서초구 원지동 23",
    "lat": 37.4593560711541,
    "lng": 127.040761086963,
    "type": "public",
    "description": "서초종합체육센터 입구에 위치한 흡연구역입니다.",
    "form": "개방형",
    "images": [
      "images/흡연구역_이미지_예시.jpg"
    ],
    "source": "공공데이터",
    "manage": "서초구 보건소, 서초종합체육관"
  },
  {
    "id": "",
    "title": "센트럴시티 경부선 흡연구역 ",
    "address": "서울특별시 서초구",
    "lat": 37.483588810333,
    "lng": 127.032734543897,
    "type": "building",
    "description": "센트럴시티 경부선 하차장 옆에 위치한 흡연구역입니다.",
    "form": "반개방형",
    "images": [
      "images/흡연구역_이미지_예시.jpg"
    ],
    "source": "공공데이터",
    "manage": "센트럴시티, 센트럴시티"
  },
  {
    "id": "",
    "title": "센트럴시티 경부선 흡연구역",
    "address": "서울특별시 서초구",
    "lat": 37.483588810333,
    "lng": 127.032734543897,
    "type": "building",
    "description": "센트럴시티 경부선 건물 남쪽 외부 공간에 위치한 흡연구역입니다.",
    "form": "개방형",
    "images": [
      "images/흡연구역_이미지_예시.jpg"
    ],
    "source": "공공데이터",
    "manage": "센트럴시티, 센트럴시티"
  },
  {
    "id": "",
    "title": "서초구청 흡연구역",
    "address": "서울특별시 서초구",
    "lat": 37.483588810333,
    "lng": 127.032734543897,
    "type": "public",
    "description": "서초구청 주차장 자판기 옆에 위치한 흡연구역입니다.",
    "form": "폐쇄형",
    "images": [
      "images/흡연구역_이미지_예시.jpg"
    ],
    "source": "공공데이터",
    "manage": "서초구청, 행정지원과"
  },
  {
    "id": "",
    "title": "서울시공공자전거 수리센터 흡연구역",
    "address": "서울특별시 서초구",
    "lat": 37.483588810333,
    "lng": 127.032734543897,
    "type": "public",
    "description": "서울시공공자전거 수리센터 옆에 위치한 흡연구역입니다.",
    "form": "개방형",
    "images": [
      "images/흡연구역_이미지_예시.jpg"
    ],
    "source": "공공데이터",
    "manage": "서초구 보건소, 청소행정과"
  },
  {
    "id": "",
    "title": "방배경찰서 흡연구역",
    "address": "서울특별시 서초구",
    "lat": 37.483588810333,
    "lng": 127.032734543897,
    "type": "public",
    "description": "방배천 복개도로 방배경찰서 앞에 위치한 흡연구역입니다.",
    "form": "개방형",
    "images": [
      "images/흡연구역_이미지_예시.jpg"
    ],
    "source": "공공데이터",
    "manage": "서초구 보건소, 청소행정과"
  },
  {
    "id": "",
    "title": "그린골프장 흡연구역",
    "address": "서울특별시 서초구",
    "lat": 37.483588810333,
    "lng": 127.032734543897,
    "type": "public",
    "description": "방배천 복개도로 그린골프장 앞에 위치한 흡연구역입니다.",
    "form": "개방형",
    "images": [
      "images/흡연구역_이미지_예시.jpg"
    ],
    "source": "공공데이터",
    "manage": "서초구 보건소, 청소행정과"
  },
  {
    "id": "",
    "title": "양재환승주차장 흡연구역",
    "address": "서울특별시 서초구",
    "lat": 37.483588810333,
    "lng": 127.032734543897,
    "type": "building",
    "description": "양재환승주차장 세븐일레븐 옆에 위치한 흡연구역입니다.",
    "form": "라인형",
    "images": [
      "images/흡연구역_이미지_예시.jpg"
    ],
    "source": "공공데이터",
    "manage": "우리동성개발, 우리동성개발"
  },
  {
    "id": "",
    "title": "양재동 흡연구역",
    "address": "서울특별시 서초구",
    "lat": 37.483588810333,
    "lng": 127.032734543897,
    "type": "public",
    "description": "녹지 사이 보도에 위치한 흡연구역입니다.",
    "form": "비대면형",
    "images": [
      "images/흡연구역_이미지_예시.jpg"
    ],
    "source": "공공데이터",
    "manage": "서초구 보건소, 건강정책과"
  },
  {
    "id": "",
    "title": "비스텔타워 흡연구역",
    "address": "서울특별시 서초구",
    "lat": 37.483588810333,
    "lng": 127.032734543897,
    "type": "public",
    "description": "비스텔타워 후면 전신주 주변에 위치한 흡연구역입니다.",
    "form": "라인형",
    "images": [
      "images/흡연구역_이미지_예시.jpg"
    ],
    "source": "공공데이터",
    "manage": "서초구 보건소, 건강정책과"
  },
  {
    "id": "",
    "title": "양재천 족구장 흡연구역",
    "address": "서울특별시 서초구",
    "lat": 37.483588810333,
    "lng": 127.032734543897,
    "type": "public",
    "description": "양재천 족구장에 위치한 흡연구역입니다.",
    "form": "라인형",
    "images": [
      "images/흡연구역_이미지_예시.jpg"
    ],
    "source": "공공데이터",
    "manage": "서초구 보건소, 건강정책과"
  },
  {
    "id": "",
    "title": "양재동 흡연구역",
    "address": "서울특별시 서초구",
    "lat": 37.483588810333,
    "lng": 127.032734543897,
    "type": "public",
    "description": "건물 주차장 기업은행 지주간판 도로에 위치한 흡연구역입니다.",
    "form": "라인형",
    "images": [
      "images/흡연구역_이미지_예시.jpg"
    ],
    "source": "공공데이터",
    "manage": "서초구 보건소, 건강정책과"
  },
  {
    "id": "",
    "title": "양재동 흡연구역",
    "address": "서울특별시 서초구",
    "lat": 37.483588810333,
    "lng": 127.032734543897,
    "type": "public",
    "description": "아파트 외부 보도 가각지점에 위치한 흡연구역입니다.",
    "form": "라인형",
    "images": [
      "images/흡연구역_이미지_예시.jpg"
    ],
    "source": "공공데이터",
    "manage": "서초구 보건소, 건강정책과"
  },
  {
    "id": "",
    "title": "동산마을구립주차장 흡연구역",
    "address": "서울특별시 서초구",
    "lat": 37.483588810333,
    "lng": 127.032734543897,
    "type": "public",
    "description": "동산마을구립주차장에 위치한 흡연구역입니다.",
    "form": "라인형",
    "images": [
      "images/흡연구역_이미지_예시.jpg"
    ],
    "source": "공공데이터",
    "manage": "서초구 보건소, 건강정책과"
  },
  {
    "id": "",
    "title": "양재동 흡연구역",
    "address": "서울특별시 서초구",
    "lat": 37.483588810333,
    "lng": 127.032734543897,
    "type": "public",
    "description": "건물 후면 양재대로변에 위치한 흡연구역입니다.",
    "form": "라인형",
    "images": [
      "images/흡연구역_이미지_예시.jpg"
    ],
    "source": "공공데이터",
    "manage": "서초구 보건소, 건강정책과"
  },
  {
    "id": "",
    "title": "양재동 흡연구역",
    "address": "서울특별시 서초구",
    "lat": 37.483588810333,
    "lng": 127.032734543897,
    "type": "public",
    "description": "카센터 앞 보도에 위치한 흡연구역입니다.",
    "form": "라인형",
    "images": [
      "images/흡연구역_이미지_예시.jpg"
    ],
    "source": "공공데이터",
    "manage": "서초구 보건소, 건강정책과"
  },
  {
    "id": "",
    "title": "양재동 흡연구역",
    "address": "서울특별시 서초구",
    "lat": 37.483588810333,
    "lng": 127.032734543897,
    "type": "public",
    "description": "건물 앞 녹지사이 보도에 위치한 흡연구역입니다.",
    "form": "라인형",
    "images": [
      "images/흡연구역_이미지_예시.jpg"
    ],
    "source": "공공데이터",
    "manage": "서초구 보건소, 건강정책과"
  },
  {
    "id": "",
    "title": "양재동 흡연구역",
    "address": "서울특별시 서초구",
    "lat": 37.483588810333,
    "lng": 127.032734543897,
    "type": "public",
    "description": "건물 앞 보도 끝지점에 위치한 흡연구역입니다.",
    "form": "라인형",
    "images": [
      "images/흡연구역_이미지_예시.jpg"
    ],
    "source": "공공데이터",
    "manage": "서초구 보건소, 건강정책과"
  },
  {
    "id": "",
    "title": "양재동 흡연구역",
    "address": "서울특별시 서초구",
    "lat": 37.483588810333,
    "lng": 127.032734543897,
    "type": "public",
    "description": "건물 앞 녹지사이 보도에 위치한 흡연구역입니다.",
    "form": "비대면형",
    "images": [
      "images/흡연구역_이미지_예시.jpg"
    ],
    "source": "공공데이터",
    "manage": "서초구 보건소, 건강정책과"
  },
  {
    "id": "",
    "title": "양재동 흡연구역",
    "address": "서울특별시 서초구",
    "lat": 37.483588810333,
    "lng": 127.032734543897,
    "type": "public",
    "description": "건물 앞 녹지사이 보도에 위치한 흡연구역입니다.",
    "form": "비대면형",
    "images": [
      "images/흡연구역_이미지_예시.jpg"
    ],
    "source": "공공데이터",
    "manage": "서초구 보건소, 건강정책과"
  },
  {
    "id": "",
    "title": "양재동 흡연구역",
    "address": "서울특별시 서초구",
    "lat": 37.483588810333,
    "lng": 127.032734543897,
    "type": "public",
    "description": "카센터 옆 기존 주차구역 (영동교회 맞은편)에 위치한 흡연구역입니다.",
    "form": "라인형",
    "images": [
      "images/흡연구역_이미지_예시.jpg"
    ],
    "source": "공공데이터",
    "manage": "서초구 보건소, 건강정책과"
  },
  {
    "id": "",
    "title": "양재동 흡연구역",
    "address": "서울특별시 서초구",
    "lat": 37.483588810333,
    "lng": 127.032734543897,
    "type": "public",
    "description": "건물 우측 골목 (오선체 좌측건물)에 위치한 흡연구역입니다.",
    "form": "라인형",
    "images": [
      "images/흡연구역_이미지_예시.jpg"
    ],
    "source": "공공데이터",
    "manage": "서초구 보건소, 건강정책과"
  },
  {
    "id": "",
    "title": "양재동 흡연구역",
    "address": "서울특별시 서초구",
    "lat": 37.483588810333,
    "lng": 127.032734543897,
    "type": "public",
    "description": "서울마더스성형외과 앞 녹지 사이 보도에 위치한 흡연구역입니다.",
    "form": "라인형",
    "images": [
      "images/흡연구역_이미지_예시.jpg"
    ],
    "source": "공공데이터",
    "manage": "서초구 보건소, 건강정책과"
  },
  {
    "id": "",
    "title": "양재동 흡연구역",
    "address": "서울특별시 서초구",
    "lat": 37.483588810333,
    "lng": 127.032734543897,
    "type": "public",
    "description": "건물 앞 보도 가각지점에 위치한 흡연구역입니다.",
    "form": "라인형",
    "images": [
      "images/흡연구역_이미지_예시.jpg"
    ],
    "source": "공공데이터",
    "manage": "서초구 보건소, 건강정책과"
  },
  {
    "id": "",
    "title": "양재동 흡연구역",
    "address": "서울특별시 서초구",
    "lat": 37.483588810333,
    "lng": 127.032734543897,
    "type": "public",
    "description": "건물 앞 녹지 사이 보도에 위치한 흡연구역입니다.",
    "form": "라인형",
    "images": [
      "images/흡연구역_이미지_예시.jpg"
    ],
    "source": "공공데이터",
    "manage": "서초구 보건소, 건강정책과"
  },
  {
    "id": "",
    "title": "양재동 흡연구역",
    "address": "서울특별시 서초구",
    "lat": 37.483588810333,
    "lng": 127.032734543897,
    "type": "public",
    "description": "진입로 입구에 위치한 흡연구역입니다.",
    "form": "비대면형",
    "images": [
      "images/흡연구역_이미지_예시.jpg"
    ],
    "source": "공공데이터",
    "manage": "서초구 보건소, 건강정책과"
  },
  {
    "id": "",
    "title": "느린마을양조장 흡연구역",
    "address": "서울특별시 서초구",
    "lat": 37.483588810333,
    "lng": 127.032734543897,
    "type": "public",
    "description": "느린마을양조장 앞에 위치한 흡연구역입니다.",
    "form": "비대면형",
    "images": [
      "images/흡연구역_이미지_예시.jpg"
    ],
    "source": "공공데이터",
    "manage": "서초구 보건소, 건강정책과"
  },
  {
    "id": "",
    "title": "양재동 흡연구역",
    "address": "서울특별시 서초구",
    "lat": 37.483588810333,
    "lng": 127.032734543897,
    "type": "public",
    "description": "빌딩 앞 사거리 가각지점에 위치한 흡연구역입니다.",
    "form": "비대면형",
    "images": [
      "images/흡연구역_이미지_예시.jpg"
    ],
    "source": "공공데이터",
    "manage": "서초구 보건소, 건강정책과"
  },
  {
    "id": "",
    "title": "양재동 흡연구역",
    "address": "서울특별시 서초구",
    "lat": 37.483588810333,
    "lng": 127.032734543897,
    "type": "public",
    "description": "소호정 주차장에 위치한 흡연구역입니다.",
    "form": "라인형",
    "images": [
      "images/흡연구역_이미지_예시.jpg"
    ],
    "source": "공공데이터",
    "manage": "서초구 보건소, 건강정책과"
  },
  {
    "id": "",
    "title": "양재동 흡연구역",
    "address": "서울특별시 서초구",
    "lat": 37.483588810333,
    "lng": 127.032734543897,
    "type": "public",
    "description": "평가옥 앞에 위치한 흡연구역입니다.",
    "form": "비대면형",
    "images": [
      "images/흡연구역_이미지_예시.jpg"
    ],
    "source": "공공데이터",
    "manage": "서초구 보건소, 건강정책과"
  },
  {
    "id": "",
    "title": "양재동 흡연구역",
    "address": "서울특별시 서초구",
    "lat": 37.483588810333,
    "lng": 127.032734543897,
    "type": "public",
    "description": "한성생고기 앞에 위치한 흡연구역입니다.",
    "form": "라인형",
    "images": [
      "images/흡연구역_이미지_예시.jpg"
    ],
    "source": "공공데이터",
    "manage": "서초구 보건소, 건강정책과"
  },
  {
    "id": "",
    "title": "양재동 흡연구역",
    "address": "서울특별시 서초구",
    "lat": 37.483588810333,
    "lng": 127.032734543897,
    "type": "public",
    "description": "띠녹지 안에 위치한 흡연구역입니다.",
    "form": "비대면형",
    "images": [
      "images/흡연구역_이미지_예시.jpg"
    ],
    "source": "공공데이터",
    "manage": "서초구 보건소, 건강정책과"
  },
  {
    "id": "",
    "title": "양재동 흡연구역",
    "address": "서울특별시 서초구",
    "lat": 37.483588810333,
    "lng": 127.032734543897,
    "type": "public",
    "description": "AT센터 앞에 위치한 흡연구역입니다.",
    "form": "비대면형",
    "images": [
      "images/흡연구역_이미지_예시.jpg"
    ],
    "source": "공공데이터",
    "manage": "서초구 보건소, 건강정책과"
  },
  {
    "id": "",
    "title": "양재동 흡연구역",
    "address": "서울특별시 서초구",
    "lat": 37.483588810333,
    "lng": 127.032734543897,
    "type": "public",
    "description": "꽃마을1소공원 남측 부지 내에 위치한 흡연구역입니다.",
    "form": "비대면형",
    "images": [
      "images/흡연구역_이미지_예시.jpg"
    ],
    "source": "공공데이터",
    "manage": "서초구 보건소, 건강정책과"
  },
  {
    "id": "",
    "title": "사당역 흡연구역",
    "address": "서울특별시 서초구",
    "lat": 37.483588810333,
    "lng": 127.032734543897,
    "type": "public",
    "description": "사당역 1번 출구와 2번 출구 사이 보도에 위치한 흡연구역입니다.",
    "form": "개방형",
    "images": [
      "images/흡연구역_이미지_예시.jpg"
    ],
    "source": "공공데이터",
    "manage": "서초구 보건소, 건강정책과"
  },
  {
    "id": "",
    "title": "양재동 흡연구역",
    "address": "서울특별시 서초구",
    "lat": 37.483588810333,
    "lng": 127.032734543897,
    "type": "public",
    "description": "반포효성빌딩 페라리 매장 앞에 위치한 흡연구역입니다.",
    "form": "개방형",
    "images": [
      "images/흡연구역_이미지_예시.jpg"
    ],
    "source": "공공데이터",
    "manage": "서초구 보건소, 건강정책과"
  },
  {
    "id": "",
    "title": "디타워 흡연구역",
    "address": "서울특별시 성동구 성수동1가 686-709",
    "lat": 0,
    "lng": 0,
    "type": "public",
    "description": "디타워 앞에 위치한 흡연구역입니다.",
    "form": "폐쇄형",
    "images": [
      "images/흡연구역_이미지_예시.jpg"
    ],
    "source": "공공데이터",
    "manage": "성동구 보건소"
  },
  {
    "id": "",
    "title": "서울숲 포휴 흡연구역",
    "address": "서울특별시 성동구 성수동1가 656-3",
    "lat": 37.5426630844554,
    "lng": 127.04519847143,
    "type": "public",
    "description": "서울숲 호퓨 앞에 위치한 흡연구역입니다.",
    "form": "폐쇄형",
    "images": [
      "images/흡연구역_이미지_예시.jpg"
    ],
    "source": "공공데이터",
    "manage": "성동구 보건소"
  },
  {
    "id": "",
    "title": "왕십리역 6번 출구 흡연구역",
    "address": "서울특별시 성동구 행당동 1-182",
    "lat": 37.5612035478284,
    "lng": 127.039160880606,
    "type": "public",
    "description": "왕십리역 6번 출구 뒤에 위치한 흡연구역입니다.",
    "form": "폐쇄형",
    "images": [
      "images/흡연구역_이미지_예시.jpg"
    ],
    "source": "공공데이터",
    "manage": "성동구 보건소"
  },
  {
    "id": "",
    "title": "세신빌딩 흡연구역",
    "address": "서울특별시 성동구 도선동 58-1",
    "lat": 37.5628017191711,
    "lng": 127.03397786808,
    "type": "public",
    "description": "세신빌딩 뒤에 위치한 흡연구역입니다.",
    "form": "폐쇄형",
    "images": [
      "images/흡연구역_이미지_예시.jpg"
    ],
    "source": "공공데이터",
    "manage": "성동구 보건소"
  },
  {
    "id": "",
    "title": "성수역 3번 출구 흡연구역",
    "address": "서울특별시 성동구 성수동2가 276-5",
    "lat": 37.5430799943731,
    "lng": 127.060640485442,
    "type": "public",
    "description": "성수역 3번 출구에 위치한 흡연구역입니다.",
    "form": "폐쇄형",
    "images": [
      "images/흡연구역_이미지_예시.jpg"
    ],
    "source": "공공데이터",
    "manage": "성동구 보건소"
  },
  {
    "id": "",
    "title": "한라시그마벨리 흡연구역",
    "address": "서울특별시 성동구 성수동2가 325-2",
    "lat": 37.5402640310949,
    "lng": 127.055081162801,
    "type": "public",
    "description": "한라시그마벨리 뒤에 위치한 흡연구역입니다.",
    "form": "폐쇄형",
    "images": [
      "images/흡연구역_이미지_예시.jpg"
    ],
    "source": "공공데이터",
    "manage": "성동구 보건소"
  },
  {
    "id": "",
    "title": "아크벨리 흡연구역",
    "address": "서울특별시 성동구 성수동2가 277-43",
    "lat": 37.5438726245303,
    "lng": 127.061297770805,
    "type": "public",
    "description": "아크벨리 앞에 위치한 흡연구역입니다.",
    "form": "폐쇄형",
    "images": [
      "images/흡연구역_이미지_예시.jpg"
    ],
    "source": "공공데이터",
    "manage": "성동구 보건소"
  },
  {
    "id": "",
    "title": "성수역 SKV1타워 흡연구역",
    "address": "서울특별시 성동구 성수동2가 315-61",
    "lat": 37.5435923219192,
    "lng": 127.055661269808,
    "type": "public",
    "description": "성수역 SKV1타워 앞에 위치한 흡연구역입니다.",
    "form": "폐쇄형",
    "images": [
      "images/흡연구역_이미지_예시.jpg"
    ],
    "source": "공공데이터",
    "manage": "성동구 보건소"
  },
  {
    "id": "",
    "title": "서울숲 IT벨리 흡연구역",
    "address": "서울특별시 성동구 성수동1가 13-164",
    "lat": 37.5474783851249,
    "lng": 127.049895535769,
    "type": "public",
    "description": "서울숲 IT벨리 앞에 위치한 흡연구역입니다.",
    "form": "폐쇄형",
    "images": [
      "images/흡연구역_이미지_예시.jpg"
    ],
    "source": "공공데이터",
    "manage": "성동구 보건소"
  },
  {
    "id": "",
    "title": "SKV1 화양사거리 흡연구역",
    "address": "서울특별시 성동구 성수동2가 280",
    "lat": 37.5466716767266,
    "lng": 127.066124755547,
    "type": "public",
    "description": "SKV1 화양사거리에 위치한 흡연구역입니다.",
    "form": "폐쇄형",
    "images": [
      "images/흡연구역_이미지_예시.jpg"
    ],
    "source": "공공데이터",
    "manage": "성동구 보건소"
  },
  {
    "id": "",
    "title": "성북구 보건소 흡연구역",
    "address": "서울특별시 성북구 하월곡동 46-1",
    "lat": 37.602693004394,
    "lng": 127.039534243994,
    "type": "public",
    "description": "성북구 보건소 10층 옥상에 위치한 흡연구역입니다.",
    "form": "개방형",
    "images": [
      "images/흡연구역_이미지_예시.jpg"
    ],
    "source": "공공데이터",
    "manage": "성북구 보건소"
  },
  {
    "id": "",
    "title": "성북구청 흡연구역",
    "address": "서울특별시 성북구 삼선동5가 411",
    "lat": 37.5894488967331,
    "lng": 127.016828945008,
    "type": "public",
    "description": "성북구청 12층 옥상에 위치한 흡연구역입니다.",
    "form": "개방형",
    "images": [
      "images/흡연구역_이미지_예시.jpg"
    ],
    "source": "공공데이터",
    "manage": "성북구청"
  },
  {
    "id": "",
    "title": "성북구청 흡연구역",
    "address": "서울특별시 성북구 삼선동5가 411",
    "lat": 37.5894488967331,
    "lng": 127.016828945008,
    "type": "public",
    "description": "성북구청 5층 휴게공간에 위치한 흡연구역입니다.",
    "form": "개방형",
    "images": [
      "images/흡연구역_이미지_예시.jpg"
    ],
    "source": "공공데이터",
    "manage": "성북구청"
  },
  {
    "id": "",
    "title": "고대안암병원 흡연구역",
    "address": "서울특별시 성북구 안암동5가 126-1",
    "lat": 37.5871448855954,
    "lng": 127.026985172168,
    "type": "building",
    "description": "고대안암병원 출입구 앞 통행로에 위치한 흡연구역입니다.",
    "form": "폐쇄형",
    "images": [
      "images/흡연구역_이미지_예시.jpg"
    ],
    "source": "공공데이터",
    "manage": "고대병원"
  },
  {
    "id": "",
    "title": "성북중앙병원 흡연구역",
    "address": "서울특별시 성북구 종암동 10-125",
    "lat": 37.5968749251616,
    "lng": 127.035639921355,
    "type": "building",
    "description": "성북중앙병원 옥상에 위치한 흡연구역입니다.",
    "form": "개방형",
    "images": [
      "images/흡연구역_이미지_예시.jpg"
    ],
    "source": "공공데이터",
    "manage": "성북중앙병원"
  },
  {
    "id": "",
    "title": "국민대학교 흡연구역",
    "address": "서울특별시 성북구 정릉동 861-1",
    "lat": 37.6109536602917,
    "lng": 126.997665424874,
    "type": "building",
    "description": "국민대학교 북악관 뒤에 위치한 흡연구역입니다.",
    "form": "개방형",
    "images": [
      "images/흡연구역_이미지_예시.jpg"
    ],
    "source": "공공데이터",
    "manage": "국민대학교"
  },
  {
    "id": "",
    "title": "국민대학교 흡연구역",
    "address": "서울특별시 성북구 정릉동 861-1",
    "lat": 37.6109536602917,
    "lng": 126.997665424874,
    "type": "building",
    "description": "국민대학교 도서관 옆에 위치한 흡연구역입니다.",
    "form": "개방형",
    "images": [
      "images/흡연구역_이미지_예시.jpg"
    ],
    "source": "공공데이터",
    "manage": "국민대학교"
  },
  {
    "id": "",
    "title": "서경대학교 흡연구역",
    "address": "서울특별시 성북구 정릉동 산16-1",
    "lat": 37.6148685290897,
    "lng": 127.012590467649,
    "type": "building",
    "description": "서경대학교 북악관 앞에 위치한 흡연구역입니다.",
    "form": "폐쇄형",
    "images": [
      "images/흡연구역_이미지_예시.jpg"
    ],
    "source": "공공데이터",
    "manage": "서경대학교"
  },
  {
    "id": "",
    "title": "한성대학교 흡연구역",
    "address": "서울특별시 성북구 삼선동2가 389",
    "lat": 37.5827636526186,
    "lng": 127.010254307974,
    "type": "building",
    "description": "한성대학교 학송관 옆에 위치한 흡연구역입니다.",
    "form": "폐쇄형",
    "images": [
      "images/흡연구역_이미지_예시.jpg"
    ],
    "source": "공공데이터",
    "manage": "한성대학교"
  },
  {
    "id": "",
    "title": "현대백화점 미아점 흡연구역",
    "address": "서울특별시 성북구 길음동 20-1",
    "lat": 37.6083911092525,
    "lng": 127.02871781073,
    "type": "building",
    "description": "현대백화점 미아점 옥상에 위치한 흡연구역입니다.",
    "form": "폐쇄형",
    "images": [
      "images/흡연구역_이미지_예시.jpg"
    ],
    "source": "공공데이터",
    "manage": "현대백화점"
  },
  {
    "id": "",
    "title": "이마트 미아점 흡연구역",
    "address": "서울특별시 성북구 길음동 25-2",
    "lat": 37.6108563263258,
    "lng": 127.029727880853,
    "type": "building",
    "description": "이마트 미아점 주차동 1층에 위치한 흡연구역입니다.",
    "form": "폐쇄형",
    "images": [
      "images/흡연구역_이미지_예시.jpg"
    ],
    "source": "공공데이터",
    "manage": "이마트"
  },
  {
    "id": "",
    "title": "롯데월드몰 흡연구역",
    "address": "서울특별시 송파구 올림픽로 300",
    "lat": 37.5137129859207,
    "lng": 127.104301829165,
    "type": "public",
    "description": "롯데월드몰 잔디광장에 위치한 흡연구역입니다.",
    "form": "반개방형",
    "images": [
      "images/흡연구역_이미지_예시.jpg"
    ],
    "source": "공공데이터",
    "manage": ""
  },
  {
    "id": "",
    "title": "문정 현대지식산업센터 흡연구역",
    "address": "서울특별시 송파구 법원로 11길 7",
    "lat": 37.4852991782959,
    "lng": 127.119391411935,
    "type": "building",
    "description": "문정 현대지식산업센터 흡연구역입니다.",
    "form": "개방형",
    "images": [
      "images/흡연구역_이미지_예시.jpg"
    ],
    "source": "공공데이터",
    "manage": ""
  },
  {
    "id": "",
    "title": "가든파이브 흡연구역",
    "address": "서울특별시 송파구 충민로66",
    "lat": 37.4776148442516,
    "lng": 127.124961768886,
    "type": "building",
    "description": "가든파이브 흡연구역입니다.",
    "form": "폐쇄형",
    "images": [
      "images/흡연구역_이미지_예시.jpg"
    ],
    "source": "공공데이터",
    "manage": ""
  },
  {
    "id": "",
    "title": "문정 SK V1 GL 메트로시티 흡연구역",
    "address": "서울특별시 송파구 128",
    "lat": 0,
    "lng": 0,
    "type": "building",
    "description": "문정 SK V1 GL 메트로시티 흡연구역입니다.",
    "form": "개방형",
    "images": [
      "images/흡연구역_이미지_예시.jpg"
    ],
    "source": "공공데이터",
    "manage": ""
  },
  {
    "id": "",
    "title": "양천구 흡연구역",
    "address": "서울특별시 양천구 목동동로 293",
    "lat": 37.5281783139269,
    "lng": 126.875771989415,
    "type": "public",
    "description": "현대41타워 앞 인도에 위치한 흡연구역입니다.",
    "form": "",
    "images": [
      "images/흡연구역_이미지_예시.jpg"
    ],
    "source": "공공데이터",
    "manage": ""
  },
  {
    "id": "",
    "title": "양천구 흡연구역",
    "address": "서울특별시 양천구 목동서로 57",
    "lat": 37.5366321308561,
    "lng": 126.879863427781,
    "type": "public",
    "description": "파리지앙A앞 공영주차장에 위치한 흡연구역입니다.",
    "form": "",
    "images": [
      "images/흡연구역_이미지_예시.jpg"
    ],
    "source": "공공데이터",
    "manage": ""
  },
  {
    "id": "",
    "title": "양천구 흡연구역",
    "address": "서울특별시 양천구 신정중앙로 95",
    "lat": 37.5266158393896,
    "lng": 126.862552997981,
    "type": "public",
    "description": "금별맥주 앞(버스 안 다니는 길)에 위치한 흡연구역입니다.",
    "form": "",
    "images": [
      "images/흡연구역_이미지_예시.jpg"
    ],
    "source": "공공데이터",
    "manage": ""
  },
  {
    "id": "",
    "title": "양천구 흡연구역",
    "address": "서울특별시 양천구 중앙로 276",
    "lat": 37.5208361584987,
    "lng": 126.85288429171,
    "type": "public",
    "description": "신정네거리역 뒤 먹자골목에 위치한 흡연구역입니다.",
    "form": "",
    "images": [
      "images/흡연구역_이미지_예시.jpg"
    ],
    "source": "공공데이터",
    "manage": ""
  },
  {
    "id": "",
    "title": "양천구 흡연구역",
    "address": "서울특별시 양천구 오목로 325",
    "lat": 37.5251074073334,
    "lng": 126.873626981623,
    "type": "public",
    "description": "농협 오목교역점 옆 골목에 위치한 흡연구역입니다.",
    "form": "",
    "images": [
      "images/흡연구역_이미지_예시.jpg"
    ],
    "source": "공공데이터",
    "manage": ""
  },
  {
    "id": "",
    "title": "양천구 흡연구역",
    "address": "서울특별시 양천구 오목로 329",
    "lat": 37.5249139528398,
    "lng": 126.874124388629,
    "type": "public",
    "description": "오목교역 2번 출구 옆에 위치한 흡연구역입니다.",
    "form": "",
    "images": [
      "images/흡연구역_이미지_예시.jpg"
    ],
    "source": "공공데이터",
    "manage": ""
  },
  {
    "id": "",
    "title": "양천구 흡연구역",
    "address": "서울특별시 양천구 목동동로 67",
    "lat": 37.515709326427,
    "lng": 126.862500271377,
    "type": "public",
    "description": "국민은행 양천지점 뒤에 위치한 흡연구역입니다.",
    "form": "",
    "images": [
      "images/흡연구역_이미지_예시.jpg"
    ],
    "source": "공공데이터",
    "manage": ""
  },
  {
    "id": "",
    "title": "양천구 흡연구역",
    "address": "서울특별시 양천구 신정중앙로 103",
    "lat": 37.5265013713269,
    "lng": 126.863371926417,
    "type": "public",
    "description": "버스 안 다니는 길 먹자골목에 위치한 흡연구역입니다.",
    "form": "",
    "images": [
      "images/흡연구역_이미지_예시.jpg"
    ],
    "source": "공공데이터",
    "manage": ""
  },
  {
    "id": "",
    "title": "양천구 흡연구역",
    "address": "서울특별시 양천구 오목로 151-1",
    "lat": 37.5249243144373,
    "lng": 126.85429770672,
    "type": "public",
    "description": "건물 뒤쪽 주차장에 위치한 흡연구역입니다.",
    "form": "",
    "images": [
      "images/흡연구역_이미지_예시.jpg"
    ],
    "source": "공공데이터",
    "manage": ""
  },
  {
    "id": "",
    "title": "양천구 흡연구역",
    "address": "서울특별시 양천구 등촌로 32",
    "lat": 37.5328851583631,
    "lng": 126.864166285292,
    "type": "public",
    "description": "건물과 건물 사이 길 골목에 위치한 흡연구역입니다.",
    "form": "",
    "images": [
      "images/흡연구역_이미지_예시.jpg"
    ],
    "source": "공공데이터",
    "manage": ""
  },
  {
    "id": "",
    "title": "양천구 흡연구역",
    "address": "서울특별시 양천구 오목로 299",
    "lat": 37.5260837006075,
    "lng": 126.87035534357,
    "type": "public",
    "description": "트라팰리스 B동과 닥터로빈 사잇길에 위치한 흡연구역입니다.",
    "form": "",
    "images": [
      "images/흡연구역_이미지_예시.jpg"
    ],
    "source": "공공데이터",
    "manage": ""
  },
  {
    "id": "",
    "title": "양천구 흡연구역",
    "address": "서울특별시 양천구 중앙로43길 14",
    "lat": 37.5204176021651,
    "lng": 126.851340568488,
    "type": "public",
    "description": "아델리체 110동과 122동 사잇길에 위치한 흡연구역입니다.",
    "form": "",
    "images": [
      "images/흡연구역_이미지_예시.jpg"
    ],
    "source": "공공데이터",
    "manage": ""
  },
  {
    "id": "",
    "title": "양천구 흡연구역",
    "address": "서울특별시 양천구 남부순환로83길 53",
    "lat": 37.5180156016829,
    "lng": 126.845086473562,
    "type": "public",
    "description": "신월6동 주민센터 주차장 입구에 위치한 흡연구역입니다.",
    "form": "",
    "images": [
      "images/흡연구역_이미지_예시.jpg"
    ],
    "source": "공공데이터",
    "manage": ""
  },
  {
    "id": "",
    "title": "양천구 흡연구역",
    "address": "서울특별시 양천구 중앙로34길 15",
    "lat": 37.5195212776081,
    "lng": 126.853643186754,
    "type": "public",
    "description": "고기요리와, GS25 사이 전봇대에 위치한 흡연구역입니다.",
    "form": "",
    "images": [
      "images/흡연구역_이미지_예시.jpg"
    ],
    "source": "공공데이터",
    "manage": ""
  },
  {
    "id": "",
    "title": "양천구 흡연구역",
    "address": "서울특별시 양천구 중앙로 209",
    "lat": 37.5151471525982,
    "lng": 126.854789187328,
    "type": "public",
    "description": "아델리체 정문 앞 상가 거리에 위치한 흡연구역입니다.",
    "form": "",
    "images": [
      "images/흡연구역_이미지_예시.jpg"
    ],
    "source": "공공데이터",
    "manage": ""
  },
  {
    "id": "",
    "title": "양천구청 흡연구역",
    "address": "서울특별시 양천구 신정동 321-4",
    "lat": 37.5170484539307,
    "lng": 126.866476530571,
    "type": "public",
    "description": "양천구청 부지에 위치한 흡연구역입니다.",
    "form": "개방형",
    "images": [
      "images/흡연구역_이미지_예시.jpg"
    ],
    "source": "공공데이터",
    "manage": "양천구청"
  },
  {
    "id": "",
    "title": "양천구청 흡연구역",
    "address": "서울특별시 양천구 신정동 321-4",
    "lat": 37.5170484539307,
    "lng": 126.866476530571,
    "type": "public",
    "description": "양천구청 해누리타운 4층 옥외정원에 위치한 흡연구역입니다.",
    "form": "개방형",
    "images": [
      "images/흡연구역_이미지_예시.jpg"
    ],
    "source": "공공데이터",
    "manage": "양천구청"
  },
  {
    "id": "",
    "title": "남부지방법원 흡연구역",
    "address": "서울특별시 양천구 신정동 313-1",
    "lat": 37.5216143644477,
    "lng": 126.864176313245,
    "type": "public",
    "description": "남부지방법원 후문 옆에 위치한 흡연구역입니다.",
    "form": "개방형",
    "images": [
      "images/흡연구역_이미지_예시.jpg"
    ],
    "source": "공공데이터",
    "manage": "남부지방법원"
  },
  {
    "id": "",
    "title": "양천세무서 흡연구역",
    "address": "서울특별시 양천구 신정동 319-12",
    "lat": 37.5203475660724,
    "lng": 126.870031451004,
    "type": "public",
    "description": "양천세무서 부지 우측에 위치한 흡연구역입니다.",
    "form": "개방형",
    "images": [
      "images/흡연구역_이미지_예시.jpg"
    ],
    "source": "공공데이터",
    "manage": "양천세무서"
  },
  {
    "id": "",
    "title": "이대목동병원 흡연구역",
    "address": "서울특별시 양천구 목동 911-1",
    "lat": 37.5364912498233,
    "lng": 126.886268658933,
    "type": "building",
    "description": "이대목동병원 흡연구역입니다.",
    "form": "개방형",
    "images": [
      "images/흡연구역_이미지_예시.jpg"
    ],
    "source": "공공데이터",
    "manage": "이대목동병원"
  },
  {
    "id": "",
    "title": "현대백화점 목동점 흡연구역",
    "address": "서울특별시 양천구 목동 916",
    "lat": 37.5268543255661,
    "lng": 126.875034766819,
    "type": "building",
    "description": "현대백화점 목동점 4층에 위치한 흡연구역입니다.",
    "form": "개방형",
    "images": [
      "images/흡연구역_이미지_예시.jpg"
    ],
    "source": "공공데이터",
    "manage": "현대백화점"
  },
  {
    "id": "",
    "title": "목동아이스링크 흡연구역",
    "address": "서울특별시 양천구 목동 914",
    "lat": 37.5305034439037,
    "lng": 126.881656501495,
    "type": "building",
    "description": "목동아이스링크 흡연구역입니다.",
    "form": "개방형",
    "images": [
      "images/흡연구역_이미지_예시.jpg"
    ],
    "source": "공공데이터",
    "manage": "목동아이스링크"
  },
  {
    "id": "",
    "title": "양천차고지 흡연구역",
    "address": "서울특별시 양천구 신정동 1312",
    "lat": 37.5076806167566,
    "lng": 126.836509661819,
    "type": "building",
    "description": "양천차고지 1층에 위치한 흡연구역입니다.",
    "form": "개방형",
    "images": [
      "images/흡연구역_이미지_예시.jpg"
    ],
    "source": "공공데이터",
    "manage": "양천차고지"
  },
  {
    "id": "",
    "title": "대림중앙시장 흡연구역",
    "address": "서울특별시 영등포구 ",
    "lat": 37.491,
    "lng": 126.8993,
    "type": "building",
    "description": "대림중앙시장 흡연구역입니다.",
    "form": "개방형",
    "images": [
      "images/흡연구역_이미지_예시.jpg"
    ],
    "source": "공공데이터",
    "manage": "시장상인회"
  },
  {
    "id": "",
    "title": "여의도역 3번 출구 흡연구역",
    "address": "서울특별시 영등포구 ",
    "lat": 37.5225,
    "lng": 126.9238,
    "type": "public",
    "description": "여의도역 3번 출구 뒤쪽에 위치한 흡연구역입니다.",
    "form": "개방형",
    "images": [
      "images/흡연구역_이미지_예시.jpg"
    ],
    "source": "공공데이터",
    "manage": "한국일보, 영등포구"
  },
  {
    "id": "",
    "title": "한국거래소 앞 흡연구역",
    "address": "서울특별시 영등포구 ",
    "lat": 37.5228,
    "lng": 126.9268,
    "type": "building",
    "description": "한국거래소 앞에 위치한 흡연구역입니다.",
    "form": "개방형",
    "images": [
      "images/흡연구역_이미지_예시.jpg"
    ],
    "source": "공공데이터",
    "manage": "한국일보, 영등포구"
  },
  {
    "id": "",
    "title": "한국거래소 앞 흡연구역",
    "address": "서울특별시 영등포구 ",
    "lat": 37.5227,
    "lng": 126.9268,
    "type": "building",
    "description": "한국거래소 앞에 위치한 흡연구역입니다.",
    "form": "개방형",
    "images": [
      "images/흡연구역_이미지_예시.jpg"
    ],
    "source": "공공데이터",
    "manage": "한국일보, 영등포구"
  },
  {
    "id": "",
    "title": "서울역 광장 흡연구역",
    "address": "서울특별시 용산구",
    "lat": 37.553149,
    "lng": 126.968881,
    "type": "public",
    "description": "서울역 광장 15번 출구에 위치한 흡연구역입니다.",
    "form": "개방형",
    "images": [
      "images/흡연구역_이미지_예시.jpg"
    ],
    "source": "공공데이터",
    "manage": "한국철도공사"
  },
  {
    "id": "",
    "title": "서울역 광장 흡연구역 ",
    "address": "서울특별시 용산구",
    "lat": 37.55376,
    "lng": 126.969662,
    "type": "public",
    "description": "서울역 광장 1번 출구에 위치한 흡연구역입니다.",
    "form": "개방형",
    "images": [
      "images/흡연구역_이미지_예시.jpg"
    ],
    "source": "공공데이터",
    "manage": "한국철도공사"
  },
  {
    "id": "",
    "title": "용산역 광장 흡연구역",
    "address": "서울특별시 용산구",
    "lat": 37.8404,
    "lng": 126.965569,
    "type": "public",
    "description": "용산역 앞 광장에 위치한 흡연구역입니다.",
    "form": "개방형",
    "images": [
      "images/흡연구역_이미지_예시.jpg"
    ],
    "source": "공공데이터",
    "manage": "현대아이파크몰"
  },
  {
    "id": "",
    "title": "용산구청 흡연구역",
    "address": "서울특별시 용산구",
    "lat": 37.532709,
    "lng": 126.99,
    "type": "public",
    "description": "용산구청 옥상에 위치한 흡연구역입니다.",
    "form": "개방형",
    "images": [
      "images/흡연구역_이미지_예시.jpg"
    ],
    "source": "공공데이터",
    "manage": "용산구청"
  },
  {
    "id": "",
    "title": "용산구청 흡연구역",
    "address": "서울특별시 용산구",
    "lat": 37.532709,
    "lng": 126.99,
    "type": "public",
    "description": "용산구청 2층 외부에 위치한 흡연구역입니다.",
    "form": "개방형",
    "images": [
      "images/흡연구역_이미지_예시.jpg"
    ],
    "source": "공공데이터",
    "manage": "용산구청"
  },
  {
    "id": "",
    "title": "서울지방보훈청 흡연구역",
    "address": "서울특별시 용산구",
    "lat": 37.534923,
    "lng": 126.974192,
    "type": "public",
    "description": "서울지방보훈청 실외에 위치한 흡연구역입니다.",
    "form": "개방형",
    "images": [
      "images/흡연구역_이미지_예시.jpg"
    ],
    "source": "공공데이터",
    "manage": "서울지방보훈청"
  },
  {
    "id": "",
    "title": "용산세무서 흡연구역",
    "address": "서울특별시 용산구",
    "lat": 37.523302,
    "lng": 126.96868,
    "type": "public",
    "description": "용산세무서 1층 외부에 위치한 흡연구역입니다.",
    "form": "개방형",
    "images": [
      "images/흡연구역_이미지_예시.jpg"
    ],
    "source": "공공데이터",
    "manage": "용산세무서"
  },
  {
    "id": "",
    "title": "국방부 컨벤스 흡연구역",
    "address": "서울특별시 용산구",
    "lat": 37.533237,
    "lng": 126.97859,
    "type": "building",
    "description": "국방부 컨벤스 1층 외부에 위치한 흡연구역입니다.",
    "form": "개방형",
    "images": [
      "images/흡연구역_이미지_예시.jpg"
    ],
    "source": "공공데이터",
    "manage": "국방부"
  },
  {
    "id": "",
    "title": "순천향대학교 서울병원 흡연구역",
    "address": "서울특별시 용산구",
    "lat": 37.534466,
    "lng": 127.004585,
    "type": "building",
    "description": "순천향대학교 서울병원 장례식장 외부에 위치한 흡연구역입니다.",
    "form": "개방형",
    "images": [
      "images/흡연구역_이미지_예시.jpg"
    ],
    "source": "공공데이터",
    "manage": "순천향대학교병원"
  },
  {
    "id": "",
    "title": "순천향대학교 서울병원 흡연구역",
    "address": "서울특별시 용산구",
    "lat": 37.534009,
    "lng": 127.004334,
    "type": "building",
    "description": "순천향대학교 서울병원 신관 옥상에 위치한 흡연구역입니다.",
    "form": "개방형",
    "images": [
      "images/흡연구역_이미지_예시.jpg"
    ],
    "source": "공공데이터",
    "manage": "순천향대학교병원"
  },
  {
    "id": "",
    "title": "하얏트호텔 흡연구역 ",
    "address": "서울특별시 용산구",
    "lat": 37.539372,
    "lng": 126.997264,
    "type": "building",
    "description": "하얏트호텔 1층 외부 주차장 가는 길 휴식장소에 위치한 흡연구역입니다.",
    "form": "개방형",
    "images": [
      "images/흡연구역_이미지_예시.jpg"
    ],
    "source": "공공데이터",
    "manage": "하얏트호텔"
  },
  {
    "id": "",
    "title": "현대아이파크몰 흡연구역",
    "address": "서울특별시 용산구",
    "lat": 37.529492,
    "lng": 126.964318,
    "type": "building",
    "description": "아이파크몰 달 주차장 4.5층에 위치한 흡연구역입니다.",
    "form": "개방형",
    "images": [
      "images/흡연구역_이미지_예시.jpg"
    ],
    "source": "공공데이터",
    "manage": "현대아이파크몰"
  },
  {
    "id": "",
    "title": "현대아이파크몰 흡연구역",
    "address": "서울특별시 용산구",
    "lat": 37.529492,
    "lng": 126.964318,
    "type": "building",
    "description": "아이파크몰 해 주차장 4.5층에 위치한 흡연구역입니다.",
    "form": "개방형",
    "images": [
      "images/흡연구역_이미지_예시.jpg"
    ],
    "source": "공공데이터",
    "manage": "현대아이파크몰"
  },
  {
    "id": "",
    "title": "현대아이파크몰 흡연구역",
    "address": "서울특별시 용산구",
    "lat": 37.529492,
    "lng": 126.964318,
    "type": "building",
    "description": "아이파크몰 8층 옥상에 위치한 흡연구역입니다.",
    "form": "개방형",
    "images": [
      "images/흡연구역_이미지_예시.jpg"
    ],
    "source": "공공데이터",
    "manage": "현대아이파크몰"
  },
  {
    "id": "",
    "title": "선인상가 흡연구역",
    "address": "서울특별시 용산구",
    "lat": 37.533068,
    "lng": 126.963521,
    "type": "building",
    "description": "선인상가 21동 1층 외부에 위치한 흡연구역입니다.",
    "form": "개방형",
    "images": [
      "images/흡연구역_이미지_예시.jpg"
    ],
    "source": "공공데이터",
    "manage": "선인상가"
  },
  {
    "id": "",
    "title": "선인상가 흡연구역",
    "address": "서울특별시 용산구",
    "lat": 37.533068,
    "lng": 126.963521,
    "type": "building",
    "description": "선인상가 21동 옥상에 위치한 흡연구역입니다.",
    "form": "개방형",
    "images": [
      "images/흡연구역_이미지_예시.jpg"
    ],
    "source": "공공데이터",
    "manage": "선인상가"
  },
  {
    "id": "",
    "title": "용산구 흡연구역",
    "address": "서울특별시 용산구 항강로2가 424-5",
    "lat": 37.527798,
    "lng": 126.967138,
    "type": "public",
    "description": "LS타워 인근 보도에 위치한 흡연구역입니다.",
    "form": "폐쇄형",
    "images": [
      "images/흡연구역_이미지_예시.jpg"
    ],
    "source": "공공데이터",
    "manage": "용산구 보건소"
  },
  {
    "id": "",
    "title": "용산구 흡연구역",
    "address": "서울특별시 용산구 한강로3가 12-6",
    "lat": 37.532293,
    "lng": 126.964512,
    "type": "public",
    "description": "용산전자상가1 공영주차장 인근 보도에 위치한 흡연구역입니다.",
    "form": "개방형",
    "images": [
      "images/흡연구역_이미지_예시.jpg"
    ],
    "source": "공공데이터",
    "manage": "용산구 보건소"
  },
  {
    "id": "",
    "title": "용산구 흡연구역",
    "address": "서울특별시 용산구 한강로3가 17-1",
    "lat": 37.532324,
    "lng": 126.964955,
    "type": "public",
    "description": "신용산지하차도 인근 보도에 위치한 흡연구역입니다.",
    "form": "개방형",
    "images": [
      "images/흡연구역_이미지_예시.jpg"
    ],
    "source": "공공데이터",
    "manage": "용산구 보건소"
  },
  {
    "id": "",
    "title": "용산구 흡연구역",
    "address": "서울특별시 용산구 동자동 14-151",
    "lat": 37.553105,
    "lng": 126.97281,
    "type": "public",
    "description": "서울역 11번 출구 인근 보도에 위치한 흡연구역입니다.",
    "form": "개방형",
    "images": [
      "images/흡연구역_이미지_예시.jpg"
    ],
    "source": "공공데이터",
    "manage": "용산구 보건소"
  },
  {
    "id": "",
    "title": "진관동 주민센터 흡연구역",
    "address": "서울특별시 은평구 진관2로 31",
    "lat": 37.6349631473395,
    "lng": 126.920735778649,
    "type": "public",
    "description": "진관동 주민센터 흡연구역입니다.",
    "form": "개방형",
    "images": [
      "images/흡연구역_이미지_예시.jpg"
    ],
    "source": "공공데이터",
    "manage": ""
  },
  {
    "id": "",
    "title": "은평구청 흡연구역",
    "address": "서울특별시 은평구 은평로195",
    "lat": 37.6024574203071,
    "lng": 126.928822870137,
    "type": "public",
    "description": "은평구청 흡연구역입니다.",
    "form": "폐쇄형",
    "images": [
      "images/흡연구역_이미지_예시.jpg"
    ],
    "source": "공공데이터",
    "manage": ""
  },
  {
    "id": "",
    "title": "가톨릭은평성모병원 흡연구역",
    "address": "서울특별시 은평구 통일로 1021",
    "lat": 37.6336094022541,
    "lng": 126.916152525534,
    "type": "building",
    "description": "가톨릭은평성모병원 흡연구역입니다.",
    "form": "폐쇄형",
    "images": [
      "images/흡연구역_이미지_예시.jpg"
    ],
    "source": "공공데이터",
    "manage": ""
  },
  {
    "id": "",
    "title": "팜스퀘어 흡연구역",
    "address": "서울특별시 은평구 불광로 20",
    "lat": 37.6097357749976,
    "lng": 126.928938477038,
    "type": "building",
    "description": "팜스퀘어 흡연구역입니다.",
    "form": "폐쇄형",
    "images": [
      "images/흡연구역_이미지_예시.jpg"
    ],
    "source": "공공데이터",
    "manage": ""
  },
  {
    "id": "",
    "title": "엔씨백화점 불광점 흡연구역",
    "address": "서울특별시 은평구 불광로 20",
    "lat": 37.6097357749976,
    "lng": 126.928938477038,
    "type": "building",
    "description": "엔씨백화점 불광점 흡연구역입니다.",
    "form": "폐쇄형",
    "images": [
      "images/흡연구역_이미지_예시.jpg"
    ],
    "source": "공공데이터",
    "manage": ""
  },
  {
    "id": "",
    "title": "범서쇼핑 흡연구역",
    "address": "서울특별시 은평구 통일로 842",
    "lat": 37.6186902335511,
    "lng": 126.922063807625,
    "type": "building",
    "description": "범서쇼핑 흡연구역입니다.",
    "form": "폐쇄형",
    "images": [
      "images/흡연구역_이미지_예시.jpg"
    ],
    "source": "공공데이터",
    "manage": ""
  },
  {
    "id": "",
    "title": "이마트 수색점 흡연구역",
    "address": "서울특별시 은평구 수색로 217",
    "lat": 37.5796932759305,
    "lng": 126.898678379239,
    "type": "building",
    "description": "이마트 수색점 흡연구역입니다.",
    "form": "폐쇄형",
    "images": [
      "images/흡연구역_이미지_예시.jpg"
    ],
    "source": "공공데이터",
    "manage": ""
  },
  {
    "id": "",
    "title": "이마트 은평점 흡연구역",
    "address": "서울특별시 은평구 은평로 111",
    "lat": 37.6008254685415,
    "lng": 126.920513478627,
    "type": "building",
    "description": "이마트 은평점 흡연구역입니다.",
    "form": "폐쇄형",
    "images": [
      "images/흡연구역_이미지_예시.jpg"
    ],
    "source": "공공데이터",
    "manage": ""
  },
  {
    "id": "",
    "title": "이마트 은평점 흡연구역",
    "address": "서울특별시 은평구 은평로 111",
    "lat": 37.6008254685415,
    "lng": 126.920513478627,
    "type": "building",
    "description": "이마트 은평점 흡연구역입니다.",
    "form": "개방형",
    "images": [
      "images/흡연구역_이미지_예시.jpg"
    ],
    "source": "공공데이터",
    "manage": ""
  },
  {
    "id": "",
    "title": "롯데몰 은평점 흡연구역",
    "address": "서울특별시 은평구 통일로 1050",
    "lat": 37.6375366740938,
    "lng": 126.917900261732,
    "type": "building",
    "description": "롯데몰 은평점 흡연구역입니다.",
    "form": "개방형",
    "images": [
      "images/흡연구역_이미지_예시.jpg"
    ],
    "source": "공공데이터",
    "manage": ""
  },
  {
    "id": "",
    "title": "은평구립도서관 흡연구역",
    "address": "서울특별시 은평구 통일로78가길 13-84",
    "lat": 37.6189785221501,
    "lng": 126.928271924743,
    "type": "public",
    "description": "은평구립도서관 흡연구역입니다.",
    "form": "개방형",
    "images": [
      "images/흡연구역_이미지_예시.jpg"
    ],
    "source": "공공데이터",
    "manage": ""
  },
  {
    "id": "",
    "title": "이디야 연신내역점 ",
    "address": "서울특별시 은평구 통일로 855-9",
    "lat": 37.6188948297727,
    "lng": 126.919884176889,
    "type": "cafe",
    "description": "흡연실이 있는 '이디야 연신내역점'입니다. ",
    "form": "폐쇄형",
    "images": [
      "images/흡연구역_이미지_예시.jpg"
    ],
    "source": "공공데이터",
    "manage": ""
  },
  {
    "id": "",
    "title": "더홀릭보드게임카페 연신내점",
    "address": "서울특별시 은평구 연서로29길 13",
    "lat": 37.6189645255796,
    "lng": 126.918639609689,
    "type": "cafe",
    "description": "흡연실이 있는 '더홀릭보드게임카페 연신내점'입니다.",
    "form": "폐쇄형",
    "images": [
      "images/흡연구역_이미지_예시.jpg"
    ],
    "source": "공공데이터",
    "manage": ""
  },
  {
    "id": "",
    "title": "아로이 커피 연신내점",
    "address": "서울특별시 은평구 통일로 838-4",
    "lat": 37.6183447019915,
    "lng": 126.922332954683,
    "type": "cafe",
    "description": "흡연실이 있는 '아로이 커피 연신내점'입니다.",
    "form": "폐쇄형",
    "images": [
      "images/흡연구역_이미지_예시.jpg"
    ],
    "source": "공공데이터",
    "manage": ""
  },
  {
    "id": "",
    "title": "읍천리382 응암점",
    "address": "서울특별시 은평구 응암로 302-1",
    "lat": 37.5983100949703,
    "lng": 126.921068643841,
    "type": "cafe",
    "description": "흡연실이 있는 '읍천리382 응암점'입니다.",
    "form": "폐쇄형",
    "images": [
      "images/흡연구역_이미지_예시.jpg"
    ],
    "source": "공공데이터",
    "manage": ""
  },
  {
    "id": "",
    "title": "놀숲 연신내로데오점",
    "address": "서울특별시 은평구 연서로29길 6",
    "lat": 37.6188077691384,
    "lng": 126.919582181082,
    "type": "cafe",
    "description": "흡연실이 있는 '놀숲 연신내로데오점'입니다.",
    "form": "폐쇄형",
    "images": [
      "images/흡연구역_이미지_예시.jpg"
    ],
    "source": "공공데이터",
    "manage": ""
  },
  {
    "id": "",
    "title": "낙원악기상가 흡연구역",
    "address": "서울특별시 종로구 낙원동 260-1",
    "lat": 37.5731678199056,
    "lng": 126.988099945425,
    "type": "public",
    "description": "낙원악기상가 도로일부에 위치한 흡연구역입니다.",
    "form": "반개방형",
    "images": [
      "images/흡연구역_이미지_예시.jpg"
    ],
    "source": "공공데이터",
    "manage": "종로구청, 민간"
  },
  {
    "id": "",
    "title": "필운대로 흡연구역",
    "address": "서울특별시 종로구 필운대로 9-2",
    "lat": 37.5771335165691,
    "lng": 126.969059394981,
    "type": "public",
    "description": "필운대로 흡연구역입니다.",
    "form": "담배꽁초 수거함",
    "images": [
      "images/흡연구역_이미지_예시.jpg"
    ],
    "source": "공공데이터",
    "manage": ""
  },
  {
    "id": "",
    "title": "보성사 터 흡연구역",
    "address": "서울특별시 종로구 수송로 80-7",
    "lat": 0,
    "lng": 0,
    "type": "public",
    "description": "보성사 터 흡연구역",
    "form": "담배꽁초 수거함",
    "images": [
      "images/흡연구역_이미지_예시.jpg"
    ],
    "source": "공공데이터",
    "manage": ""
  },
  {
    "id": "",
    "title": "종로 흡연구역",
    "address": "서울특별시 종로구 종로 1",
    "lat": 37.5709578373114,
    "lng": 126.977928770123,
    "type": "public",
    "description": "교보생명 앞에 위치한 흡연구역입니다.",
    "form": "담배꽁초 수거함",
    "images": [
      "images/흡연구역_이미지_예시.jpg"
    ],
    "source": "공공데이터",
    "manage": ""
  },
  {
    "id": "",
    "title": "청계천로 흡연구역",
    "address": "서울특별시 종로구 청계천로 35",
    "lat": 37.5693392529284,
    "lng": 126.981377714314,
    "type": "public",
    "description": "청계천로 흡연구역입니다.",
    "form": "담배꽁초 수거함",
    "images": [
      "images/흡연구역_이미지_예시.jpg"
    ],
    "source": "공공데이터",
    "manage": ""
  },
  {
    "id": "",
    "title": "서순라길 흡연구역",
    "address": "서울특별시 종로구 서순라길 3",
    "lat": 37.5708133214043,
    "lng": 126.993714079293,
    "type": "public",
    "description": "서순라길 흡연구역입니다.",
    "form": "담배꽁초 수거함",
    "images": [
      "images/흡연구역_이미지_예시.jpg"
    ],
    "source": "공공데이터",
    "manage": ""
  },
  {
    "id": "",
    "title": "서순라길 흡연구역",
    "address": "서울특별시 종로구 서순라길 7",
    "lat": 37.5709889233704,
    "lng": 126.993676369977,
    "type": "public",
    "description": "서순라길 흡연구역입니다.",
    "form": "담배꽁초 수거함",
    "images": [
      "images/흡연구역_이미지_예시.jpg"
    ],
    "source": "공공데이터",
    "manage": ""
  },
  {
    "id": "",
    "title": "수표로 흡연구역",
    "address": "서울특별시 종로구 종로3가 2-1",
    "lat": 37.5705098406404,
    "lng": 126.989542260835,
    "type": "public",
    "description": "수표로 흡연구역입니다.",
    "form": "담배꽁초 수거함",
    "images": [
      "images/흡연구역_이미지_예시.jpg"
    ],
    "source": "공공데이터",
    "manage": ""
  },
  {
    "id": "",
    "title": "돈화문로 흡연구역",
    "address": "서울특별시 종로구 돈화문로 32-1",
    "lat": 37.5714908635651,
    "lng": 126.992109219536,
    "type": "public",
    "description": "돈화문로 흡연구역입니다.",
    "form": "담배꽁초 수거함",
    "images": [
      "images/흡연구역_이미지_예시.jpg"
    ],
    "source": "공공데이터",
    "manage": ""
  },
  {
    "id": "",
    "title": "돈화문로 흡연구역",
    "address": "서울특별시 종로구 돈화문로 35",
    "lat": 37.5715959778406,
    "lng": 126.991646116288,
    "type": "public",
    "description": "돈화문로 흡연구역입니다.",
    "form": "담배꽁초 수거함",
    "images": [
      "images/흡연구역_이미지_예시.jpg"
    ],
    "source": "공공데이터",
    "manage": ""
  },
  {
    "id": "",
    "title": "종로 흡연구역",
    "address": "서울특별시 종로구 종로 289",
    "lat": 37.5717545176917,
    "lng": 127.009969690098,
    "type": "public",
    "description": "종로 흡연구역입니다.",
    "form": "담배꽁초 수거함",
    "images": [
      "images/흡연구역_이미지_예시.jpg"
    ],
    "source": "공공데이터",
    "manage": ""
  },
  {
    "id": "",
    "title": "종로 흡연구역",
    "address": "서울특별시 종로구 종로 294",
    "lat": 37.5712625089941,
    "lng": 127.010715368227,
    "type": "public",
    "description": "종로 흡연구역입니다.",
    "form": "담배꽁초 수거함",
    "images": [
      "images/흡연구역_이미지_예시.jpg"
    ],
    "source": "공공데이터",
    "manage": ""
  },
  {
    "id": "",
    "title": "종로 흡연구역",
    "address": "서울특별시 종로구 종로 307",
    "lat": 37.5722159232795,
    "lng": 127.011854397226,
    "type": "public",
    "description": "종로 흡연구역입니다.",
    "form": "담배꽁초 수거함",
    "images": [
      "images/흡연구역_이미지_예시.jpg"
    ],
    "source": "공공데이터",
    "manage": ""
  },
  {
    "id": "",
    "title": "종로 흡연구역",
    "address": "서울특별시 종로구 종로 359",
    "lat": 37.5733722075697,
    "lng": 127.01675118037,
    "type": "public",
    "description": "종로 흡연구역입니다.",
    "form": "담배꽁초 수거함",
    "images": [
      "images/흡연구역_이미지_예시.jpg"
    ],
    "source": "공공데이터",
    "manage": ""
  },
  {
    "id": "",
    "title": "종로 흡연구역",
    "address": "서울특별시 종로구 종로 398",
    "lat": 37.5746707539542,
    "lng": 127.021548537943,
    "type": "public",
    "description": "종로 흡연구역입니다.",
    "form": "담배꽁초 수거함",
    "images": [
      "images/흡연구역_이미지_예시.jpg"
    ],
    "source": "공공데이터",
    "manage": ""
  },
  {
    "id": "",
    "title": "을지로입구역 8번 출구 흡연구역",
    "address": "서울특별시 중구 남대문로 81",
    "lat": 37.5647299033135,
    "lng": 126.981730421825,
    "type": "public",
    "description": "을지로입구역 8번 출구에 위치한 흡연구역입니다.",
    "form": "반개방형",
    "images": [
      "images/흡연구역_이미지_예시.jpg"
    ],
    "source": "공공데이터",
    "manage": "중구청, 한국일보, 롯데백화점"
  },
  {
    "id": "",
    "title": "하나은행본점 흡연구역",
    "address": "서울특별시 중구 을지로 35",
    "lat": 37.5664918220199,
    "lng": 126.981865819602,
    "type": "building",
    "description": "하나은행본점 측면부에 위치한 흡연구역입니다.",
    "form": "반개방형",
    "images": [
      "images/흡연구역_이미지_예시.jpg"
    ],
    "source": "공공데이터",
    "manage": "중구청, 한국일보"
  },
  {
    "id": "",
    "title": "하나카드본사 흡연구역",
    "address": "서울특별시 중구 을지로 66",
    "lat": 37.5651546444578,
    "lng": 126.985010733916,
    "type": "building",
    "description": "하나카드본사 측면부에 위치한 흡연구역입니다.",
    "form": "반개방형",
    "images": [
      "images/흡연구역_이미지_예시.jpg"
    ],
    "source": "공공데이터",
    "manage": "중구청, 한국일보"
  },
  {
    "id": "",
    "title": "장교빌딩 흡연구역",
    "address": "서울특별시 중구 삼일대로 363",
    "lat": 37.5671565387212,
    "lng": 126.987052299704,
    "type": "building",
    "description": "장교빌딩 전면부에 위치한 흡연구역입니다.",
    "form": "개방형",
    "images": [
      "images/흡연구역_이미지_예시.jpg"
    ],
    "source": "공공데이터",
    "manage": "중구청, 한국일보"
  },
  {
    "id": "",
    "title": "두산타워 흡연구역",
    "address": "서울특별시 중구 장충단로 275",
    "lat": 37.5688849422849,
    "lng": 127.008775114213,
    "type": "building",
    "description": "두산타워 전면부에 위치한 흡연구역입니다.",
    "form": "개방형",
    "images": [
      "images/흡연구역_이미지_예시.jpg"
    ],
    "source": "공공데이터",
    "manage": "중구청, 한국일보"
  },
  {
    "id": "",
    "title": "서울역 8번 출구 흡연구역",
    "address": "서울특별시 중구 한강대로 416",
    "lat": 37.555503632236,
    "lng": 126.973751343837,
    "type": "public",
    "description": "서울역 8번 출구에 위치한 흡연구역입니다.",
    "form": "반개방형",
    "images": [
      "images/흡연구역_이미지_예시.jpg"
    ],
    "source": "공공데이터",
    "manage": "중구청, 한국일보"
  },
  {
    "id": "",
    "title": "면일체육문화센터 흡연구역",
    "address": "서울특별시 중랑구 용마산로100길 13",
    "lat": 37.5920415995378,
    "lng": 127.099794712349,
    "type": "public",
    "description": "면일체육문화센터 흡연구역입니다.",
    "form": "",
    "images": [
      "images/흡연구역_이미지_예시.jpg"
    ],
    "source": "공공데이터",
    "manage": ""
  },
  {
    "id": "",
    "title": "동대문구청 흡연구역",
    "address": "서울특별시 중랑구 봉화산로 179",
    "lat": 37.6065635856848,
    "lng": 127.09272484193,
    "type": "public",
    "description": "동대문구청 흡연구역입니다.",
    "form": "",
    "images": [
      "images/흡연구역_이미지_예시.jpg"
    ],
    "source": "공공데이터",
    "manage": ""
  },
  {
    "id": "",
    "title": "면목동 흡연구역",
    "address": "서울특별시 중랑구 신내로 156",
    "lat": 37.6130913124974,
    "lng": 127.099186989431,
    "type": "public",
    "description": "면목동 흡연구역입니다.",
    "form": "",
    "images": [
      "images/흡연구역_이미지_예시.jpg"
    ],
    "source": "공공데이터",
    "manage": ""
  },
  {
    "id": "",
    "title": "서울의료원 흡연구역",
    "address": "서울특별시 중랑구 신내역로 111",
    "lat": 37.613121773853,
    "lng": 127.11244192431,
    "type": "building",
    "description": "서울의료원 흡연구역입니다.",
    "form": "",
    "images": [
      "images/흡연구역_이미지_예시.jpg"
    ],
    "source": "공공데이터",
    "manage": ""
  }
]