[
  {
    "id": "kbp-1",
    "title": "강북문화정보도서관 흡연구역",
    "address": "서울특별시 강북구 오현로 145",
    "lat": 37.6251153938762,
    "lng": 127.036079668809,
    "type": "public",
    "description": "강북문화정보도서관 주차장 옆에 위치한 흡연구역입니다.",
    "form": "반개방형",
    "images": [],
    "source": "공공데이터",
    "manage": "강북문화정보도서관",
    "district": "강북구"
  },
  {
    "id": "kbb-1",
    "title": "롯데백화점 미아점 흡연구역",
    "address": "서울특별시 강북구 도봉로 62",
    "lat": 37.6145929759749,
    "lng": 127.030517678336,
    "type": "building",
    "description": "롯데백화점 미아점 옥상에 위치한 흡연구역입니다.",
    "form": "폐쇄형",
    "images": [],
    "source": "공공데이터",
    "manage": "롯데백화점",
    "district": "강북구"
  },
  {
    "id": "kbc-1",
    "title": "미즐 카페 엠",
    "address": "서울특별시 강북구 4.19로 107",
    "lat": 37.6435578967693,
    "lng": 127.003794761375,
    "type": "cafe",
    "description": "흡연실이 있는 카페 '미즐 카페 엠'입니다.",
    "form": "페쇄형",
    "images": [],
    "source": "공공데이터",
    "manage": "미즐 카페 엠",
    "district": "강북구"
  },
  {
    "id": "gsp-1",
    "title": "강서구민회관 흡연구역",
    "address": "서울특별시 강서구 우장산로 66",
    "lat": 37.5534364240863,
    "lng": 126.843648918555,
    "type": "public",
    "description": "강서구민회관에 위치한 흡연구역입니다.",
    "form": "반개방형",
    "images": [],
    "source": "공공데이터",
    "manage": "",
    "district": "강서구"
  },
  {
    "id": "gsp-2",
    "title": "마곡레포츠센터 흡연구역",
    "address": "서울특별시 강서구 양천로 251",
    "lat": 37.5731554994777,
    "lng": 126.832148803205,
    "type": "public",
    "description": "마곡레포츠센터에 위치한 흡연구역입니다.",
    "form": "반개방형",
    "images": [],
    "source": "공공데이터",
    "manage": "",
    "district": "강서구"
  },
  {
    "id": "gsp-3",
    "title": "강서구청 흡연구역",
    "address": "서울특별시 강서구 화곡로 302",
    "lat": 37.5509655144007,
    "lng": 126.849532173376,
    "type": "public",
    "description": "강서구청 주차장 뒤편에 위치한 흡연구역입니다.",
    "form": "",
    "images": [],
    "source": "공공데이터",
    "manage": "강서구청",
    "district": "강서구"
  },
  {
    "id": "gsp-4",
    "title": "김포공항화물청사 흡연구역",
    "address": "서울특별시 강서구 하늘길 111",
    "lat": 37.55424523220979,
    "lng": 126.80797062250126,
    "type": "public",
    "description": "김포공항화물청사 1층 옥외에 위치한 흡연구역입니다.",
    "form": "",
    "images": [],
    "source": "공공데이터",
    "manage": "공항공사",
    "district": "강서구"
  },
  {
    "id": "gsp-5",
    "title": "김포공항국내선 흡연구역",
    "address": "서울특별시 강서구 하늘길 111",
    "lat": 37.56047452702954,
    "lng": 126.80455921234028,
    "type": "public",
    "description": "김포공항국내선 옥외에 위치한 흡연구역입니다.",
    "form": "",
    "images": [],
    "source": "공공데이터",
    "manage": "공항공사",
    "district": "강서구"
  },
  {
    "id": "gap-6",
    "title": "김포공항국제선 흡연구역",
    "address": "서울특별시 강서구 하늘길 38",
    "lat": 37.5713695798026,
    "lng": 126.802960133589,
    "type": "public",
    "description": "김포공항국제선 옥외에 위치한 흡연구역입니다.",
    "form": "",
    "images": [],
    "source": "공공데이터",
    "manage": "공항공사",
    "district": "강서구"
  },
  {
    "id": "gap-1",
    "title": "관악구청 흡연구역",
    "address": "서울특별시 관악구 관악로 145",
    "lat": 37.47820251802855,
    "lng": 126.95138559238352,
    "type": "public",
    "description": "관악구청 2층 테라스에 위치한 흡연구역입니다.",
    "form": "폐쇄형",
    "images": [],
    "source": "공공데이터",
    "manage": "관악구청",
    "district": "관악구"
  },
  {
    "id": "gap-2",
    "title": "관악구청 흡연구역",
    "address": "서울특별시 관악구 관악로 145",
    "lat": 37.4782106746327,
    "lng": 126.951501244173,
    "type": "public",
    "description": "관악구청 9층 옥상에 위치한 흡연구역입니다.",
    "form": "개방형",
    "images": [],
    "source": "공공데이터",
    "manage": "관악구청",
    "district": "관악구"
  },
  {
    "id": "gap-3",
    "title": "관악구 보건소 흡연구역",
    "address": "서울특별시 관악구 봉천동 661",
    "lat": 37.488180654319,
    "lng": 126.932669477715,
    "type": "public",
    "description": "관악구의회 6층 옥상에 위치한 흡연구역입니다.",
    "form": "개방형",
    "images": [],
    "source": "공공데이터",
    "manage": "관악구청",
    "district": "관악구"
  },
  {
    "id": "gap-4",
    "title": "관악구의회 흡연구역",
    "address": "서울특별시 관악구 봉천동 1570-1",
    "lat": 37.478454709667574,
    "lng": 126.95116496759996,
    "type": "public",
    "description": "관악구 보건소 6층 옥상에 위치한 흡연구역입니다.",
    "form": "개방형",
    "images": [],
    "source": "공공데이터",
    "manage": "관악구청",
    "district": "관악구"
  },
  {
    "id": "gap-5",
    "title": "싱글벙글센터 흡연구역",
    "address": "서울특별시 관악구 남부순환로 234길 73",
    "lat": 37.4760962512417,
    "lng": 126.956288055678,
    "type": "public",
    "description": "싱글벙글센터 뒷편에 위치한 흡연구역입니다.",
    "form": "폐쇄형",
    "images": [],
    "source": "공공데이터",
    "manage": "관악구청",
    "district": "관악구"
  },
  {
    "id": "gap-6",
    "title": "관악문화관도서관 흡연구역",
    "address": "서울특별시 관악구 신림로3길 35",
    "lat": 37.4675533645757,
    "lng": 126.944962394132,
    "type": "public",
    "description": "관악문화관도서관 흡연구역입니다.",
    "form": "폐쇄형",
    "images": [],
    "source": "공공데이터",
    "manage": "관악구청",
    "district": "관악구"
  },
  {
    "id": "gab-1",
    "title": "강남고려병원 흡연구역",
    "address": "서울특별시 관악구 관악로 242",
    "lat": 37.4856188363947,
    "lng": 126.956781703053,
    "type": "building",
    "description": "강남고려병원 주차장에 위치한 흡연구역입니다.",
    "form": "개방형",
    "images": [],
    "source": "공공데이터",
    "manage": "강남고려병원",
    "district": "관악구"
  },
  {
    "id": "gab-2",
    "title": "타임스트림 흡연구역",
    "address": "서울특별시 관악구 신림로 330",
    "lat": 37.4838513393186,
    "lng": 126.930234545397,
    "type": "building",
    "description": "타임스트림 옥상에 위치한 흡연구역입니다.",
    "form": "개방형",
    "images": [],
    "source": "공공데이터",
    "manage": "타임스트림",
    "district": "관악구"
  },
  {
    "id": "gab-2",
    "title": "르네상스쇼핑몰 흡연구역",
    "address": "서울특별시 관악구 신림로 340",
    "lat": 37.4847625375982,
    "lng": 126.930096548294,
    "type": "building",
    "description": "르네상스쇼핑몰 흡연구역입니다.",
    "form": "개방형",
    "images": [],
    "source": "공공데이터",
    "manage": "르네상스쇼핑몰",
    "district": "관악구"
  },
  {
    "id": "gab-3",
    "title": "에이치플러스양지병원 흡연구역",
    "address": "서울특별시 관악구 남부순환로 1636",
    "lat": 37.48411740697721,
    "lng": 126.932561980664,
    "type": "building",
    "description": "에이치플러스양지병원 옥상에 위치한 흡연구역입니다.",
    "form": "개방형",
    "images": [],
    "source": "공공데이터",
    "manage": "양지병원",
    "district": "관악구"
  },
  {
    "id": "gab-4",
    "title": "롯데백화점 관악점 흡연구역",
    "address": "서울특별시 관악구 봉천로 209",
    "lat": 37.4904954867064,
    "lng": 126.924981674031,
    "type": "building",
    "description": "롯데백화점 관악점 건물 뒷편에 위치한 흡연구역입니다.",
    "form": "페쇄형",
    "images": [],
    "source": "공공데이터",
    "manage": "롯데백화점 관악점",
    "district": "관악구"
  },
  {
    "id": "gjp-1",
    "title": "동서울종합터미널 흡연구역",
    "address": "서울특별시 광진구 구의동 546-1",
    "lat": 37.5339176560567,
    "lng": 127.093585434282,
    "type": "public",
    "description": "동서울종합터미널 앞 전면보도에 위치한 흡연구역입니다.",
    "form": "반개방형",
    "images": [],
    "source": "공공데이터",
    "manage": "청소과",
    "district": "광진구"
  },
  {
    "id": "gjp-2",
    "title": "아차산배수지 체육공원 흡연구역",
    "address": "서울특별시 광진구 천호대로 731",
    "lat": "",
    "lng": "",
    "type": "public ",
    "description": "아차산배수지 체육공원에 위치한 흡연구역입니다.",
    "form": "밀폐형",
    "images": [],
    "source": "공공데이터",
    "manage": "",
    "district": "광진구"
  },
  {
    "id": "gjp-3",
    "title": "광진구청 흡연구역",
    "address": "서울특별시 광진구 자양1동 777",
    "lat": 37.5383979954125,
    "lng": 127.082428688031,
    "type": "public",
    "description": "광진구청 흡연구역입니다.",
    "form": "개방형",
    "images": [
      "images/흡연구역_이미지_예시.jpg"
    ],
    "source": "공공데이터",
    "manage": "",
    "district": "광진구"
  },
  {
    "id": "gjp-4",
    "title": "광진구청 흡연구역",
    "address": "서울특별시 광진구 자양1동 778",
    "lat": "",
    "lng": "",
    "type": "public",
    "description": "광진구청 흡연구역입니다.",
    "form": "개방형",
    "images": [
      "images/흡연구역_이미지_예시.jpg"
    ],
    "source": "공공데이터",
    "manage": "",
    "district": "광진구"
  },
  {
    "id": "gjp-5",
    "title": "광진구청 흡연구역",
    "address": "서울특별시 광진구 자양1동 779",
    "lat": 37.5375239543766,
    "lng": 127.082272036701,
    "type": "public",
    "description": "광진구청 흡연구역입니다.",
    "form": "개방형",
    "images": [
      "images/흡연구역_이미지_예시.jpg"
    ],
    "source": "공공데이터",
    "manage": "",
    "district": "광진구"
  },
  {
    "id": "gjp-6",
    "title": "화양동 주민자치센터 흡연구역",
    "address": "서울특별시 광진구 화양동 132-68",
    "lat": 37.5462710059779,
    "lng": 127.070480248872,
    "type": "public",
    "description": "화양동 주민자치센터 흡연구역입니다.",
    "form": "개방형",
    "images": [
      "images/흡연구역_이미지_예시.jpg"
    ],
    "source": "공공데이터",
    "manage": "",
    "district": "광진구"
  },
  {
    "id": "gjp-7",
    "title": "보건복지행정타운 흡연구역",
    "address": "서울특별시 광진구 용마산로 127",
    "lat": 37.5650862337223,
    "lng": 127.085776641765,
    "type": "public",
    "description": "보건복지행정타운 흡연구역입니다.",
    "form": "개방형",
    "images": [
      "images/흡연구역_이미지_예시.jpg"
    ],
    "source": "공공데이터",
    "manage": "",
    "district": "광진구"
  },
  {
    "id": "gjp-8",
    "title": "국립정신건강센터 흡연구역",
    "address": "서울특별시 광진구 용마산로 127",
    "lat": 37.5650862337223,
    "lng": 127.085776641765,
    "type": "public",
    "description": "국립정신건강센터 흡연구역입니다.",
    "form": "개방형",
    "images": [
      "images/흡연구역_이미지_예시.jpg"
    ],
    "source": "공공데이터",
    "manage": "",
    "district": "광진구"
  },
  {
    "id": "gjb-1",
    "title": "세종대학교 흡연구역",
    "address": "서울특별시 광진구 능동로 213",
    "lat": "",
    "lng": "",
    "type": "building",
    "description": "세종대학교 흡연구역입니다.",
    "form": "개방형",
    "images": [
      "images/흡연구역_이미지_예시.jpg"
    ],
    "source": "공공데이터",
    "manage": "",
    "district": "광진구"
  },
  {
    "id": "gjb-2",
    "title": "건국대학교 인문학관 흡연구역",
    "address": "서울특별시 광진구 능동로 120",
    "lat": 37.539182674872,
    "lng": 127.074711902268,
    "type": "building",
    "description": "건국대학교 인문학관 흡연구역입니다.",
    "form": "개방형",
    "images": [
      "images/흡연구역_이미지_예시.jpg"
    ],
    "source": "공공데이터",
    "manage": "",
    "district": "광진구"
  },
  {
    "id": "gjb-3",
    "title": "세종대학교 대양홀 흡연구역",
    "address": "서울특별시 광진구 능동로 209",
    "lat": 37.5516093089619,
    "lng": 127.07318364213,
    "type": "building",
    "description": "세종대학교 대양홀 흡연구역입니다.",
    "form": "개방형",
    "images": [
      "images/흡연구역_이미지_예시.jpg"
    ],
    "source": "공공데이터",
    "manage": "",
    "district": "광진구"
  },
  {
    "id": "gjb-4",
    "title": "유니버설아트센터 흡연구역",
    "address": "서울특별시 광진구 천호대로 664",
    "lat": 37.5509798002896,
    "lng": 127.087095159462,
    "type": "building",
    "description": "유니버설아트센터 흡연구역입니다.",
    "form": "페쇄형",
    "images": [
      "images/흡연구역_이미지_예시.jpg"
    ],
    "source": "공공데이터",
    "manage": "",
    "district": "광진구"
  },
  {
    "id": "gjb-5",
    "title": "건국대학교새천년관 대공연장 흡연구역",
    "address": "서울특별시 광진구 능동로 120",
    "lat": 37.539182674872,
    "lng": 127.074711902268,
    "type": "building",
    "description": "건국대학교새천년관 대공연장 흡연구역입니다.",
    "form": "폐쇄형",
    "images": [
      "images/흡연구역_이미지_예시.jpg"
    ],
    "source": "공공데이터",
    "manage": "",
    "district": "광진구"
  },
  {
    "id": "gjb-6",
    "title": "세종대학교 학생회관 대공연장 흡연구역",
    "address": "서울특별시 광진구 능동로 209",
    "lat": 37.5516093089619,
    "lng": 127.07318364213,
    "type": "building",
    "description": "세종대학교 학생회관 대공연장 흡연구역입니다.",
    "form": "폐쇄형",
    "images": [
      "images/흡연구역_이미지_예시.jpg"
    ],
    "source": "공공데이터",
    "manage": "",
    "district": "광진구"
  },
  {
    "id": "gjb-7",
    "title": "이마트 자양점 흡연구역",
    "address": "서울특별시 광진구 아차산로 272",
    "lat": 37.5385582736952,
    "lng": 127.072996184863,
    "type": "building",
    "description": "이마트 자양점 흡연구역입니다.",
    "form": "개방형",
    "images": [
      "images/흡연구역_이미지_예시.jpg"
    ],
    "source": "공공데이터",
    "manage": "",
    "district": "광진구"
  },
  {
    "id": "gjb-8",
    "title": "롯데백화점 건대스타시티점",
    "address": "서울특별시 광진구 능동로 92",
    "lat": 37.5390373908314,
    "lng": 127.071432147214,
    "type": "building",
    "description": "롯데백화점 건대스타시티점입니다.",
    "form": "개방형",
    "images": [
      "images/흡연구역_이미지_예시.jpg"
    ],
    "source": "공공데이터",
    "manage": "",
    "district": "광진구"
  },
  {
    "id": "gjb-9",
    "title": "커먼그라운드 흡연구역",
    "address": "서울특별시 광진구 아차산로 200",
    "lat": 37.5410566332301,
    "lng": 127.065669226745,
    "type": "building",
    "description": "커먼그라운드 3층에 위치한 흡연구역입니다.",
    "form": "폐쇄형",
    "images": [
      "images/흡연구역_이미지_예시.jpg"
    ],
    "source": "공공데이터",
    "manage": "",
    "district": "광진구"
  },
  {
    "id": "gjb-10",
    "title": "테크노마트 흡연구역",
    "address": "서울특별시 광진구 광나루로 85",
    "lat": "",
    "lng": "",
    "type": "building",
    "description": "테크노마트 흡연구역입니다.",
    "form": "개방형",
    "images": [
      "images/흡연구역_이미지_예시.jpg"
    ],
    "source": "공공데이터",
    "manage": "",
    "district": "광진구"
  },
  {
    "id": "gjc-1",
    "title": "탐앤탐스 블랙그레이트점",
    "address": "서울특별시 광진구 아차산로 426",
    "lat": 37.537808088884,
    "lng": 127.089750551178,
    "type": "cafe",
    "description": "흡연실이 있는 '탐앤탐스 블랙그레이트점'입니다.",
    "form": "폐쇄형",
    "images": [
      "images/흡연구역_이미지_예시.jpg"
    ],
    "source": "공공데이터",
    "manage": "",
    "district": "광진구"
  },
  {
    "id": "gjc-2",
    "title": "꽃빙(동서울종합터미널 2층)",
    "address": "서울특별시 광진구 강변역로 50",
    "lat": 37.5345385101597,
    "lng": 127.094184050922,
    "type": "cafe",
    "description": "흡연실이 있는 '꽃빙'입니다.",
    "form": "폐쇄형",
    "images": [
      "images/흡연구역_이미지_예시.jpg"
    ],
    "source": "공공데이터",
    "manage": "",
    "district": "광진구"
  },
  {
    "id": "gjc-3",
    "title": "투썸플레이스 군자역점",
    "address": "서울특별시 광진구 능동로 289",
    "lat": 37.55581918269861,
    "lng": 127.07843517977837,
    "type": "cafe",
    "description": "흡연실이 있는 '투썸플레이스 군자역점'입니다.",
    "form": "폐쇄형",
    "images": [
      "images/흡연구역_이미지_예시.jpg"
    ],
    "source": "공공데이터",
    "manage": "",
    "district": "광진구"
  },
  {
    "id": "gjc-4",
    "title": "카페오로시",
    "address": "서울특별시 광진구 자양로 131",
    "lat": 37.5394776891691,
    "lng": 127.082907026695,
    "type": "cafe",
    "description": "흡연실이 있는 '카페오로시'입니다.",
    "form": "폐쇄형",
    "images": [
      "images/흡연구역_이미지_예시.jpg"
    ],
    "source": "공공데이터",
    "manage": "",
    "district": "광진구"
  },
  {
    "id": "gjc-5",
    "title": "다트프린스 건대점",
    "address": "서울특별시 광진구 아차산로 242",
    "lat": 37.5399325479221,
    "lng": 127.069903667359,
    "type": "cafe",
    "description": "흡연실이 있는 '다트프린스 건대점'입니다.",
    "form": "폐쇄형",
    "images": [
      "images/흡연구역_이미지_예시.jpg"
    ],
    "source": "공공데이터",
    "manage": "",
    "district": "광진구"
  },
  {
    "id": "gjc-6",
    "title": "더이퀄리브리엄커피",
    "address": "서울특별시 광진구 아차산로30길 7",
    "lat": 37.5403541616654,
    "lng": 127.067833632739,
    "type": "cafe",
    "description": "흡연실이 있는 '더이퀄리브리엄커피'입니다.",
    "form": "개방형",
    "images": [
      "images/흡연구역_이미지_예시.jpg"
    ],
    "source": "공공데이터",
    "manage": "",
    "district": "광진구"
  },
  {
    "id": "gjc-7",
    "title": "카페온더플랜 건대점",
    "address": "서울특별시 광진구 능동로 161",
    "lat": 37.5452314740878,
    "lng": 127.072789501681,
    "type": "cafe",
    "description": "흡연실이 있는 '카페온더플랜 건대점'입니다.",
    "form": "폐쇄형",
    "images": [
      "images/흡연구역_이미지_예시.jpg"
    ],
    "source": "공공데이터",
    "manage": "",
    "district": "광진구"
  },
  {
    "id": "gjc-8",
    "title": "꿈꾸다 917",
    "address": "서울특별시 광진구 아차산로 31길 15",
    "lat": 37.5417865132484,
    "lng": 127.069482546667,
    "type": "cafe",
    "description": "흡연실이 있는 '꿈꾸다 917'입니다.",
    "form": "폐쇄형",
    "images": [
      "images/흡연구역_이미지_예시.jpg"
    ],
    "source": "공공데이터",
    "manage": "",
    "district": "광진구"
  },
  {
    "id": "gjc-9",
    "title": "커피마켓",
    "address": "서울특별시 광진구 아차산로33길 60",
    "lat": 37.5428701496604,
    "lng": 127.071139792136,
    "type": "cafe",
    "description": "흡연실이 있는 '커피마켓'입니다.",
    "form": "폐쇄형",
    "images": [
      "images/흡연구역_이미지_예시.jpg"
    ],
    "source": "공공데이터",
    "manage": "",
    "district": "광진구"
  },
  {
    "id": "gjc-10",
    "title": "탐앤탐스 광진화양점",
    "address": "서울특별시 광진구 능동로 13길 26",
    "lat": 37.5432286879772,
    "lng": 127.070788900119,
    "type": "cafe",
    "description": "흡연실이 있는 '탐앤탐스 광진화양점'입니다.",
    "form": "폐쇄형",
    "images": [
      "images/흡연구역_이미지_예시.jpg"
    ],
    "source": "공공데이터",
    "manage": "",
    "district": "광진구"
  },
  {
    "id": "gjc-11",
    "title": "놀숲 건대점",
    "address": "서울특별시 광진구 아차산로 224",
    "lat": 37.5405711604806,
    "lng": 127.068080611331,
    "type": "cafe",
    "description": "흡연실이 있는 '놀숲 건대점'입니다.",
    "form": "폐쇄형",
    "images": [
      "images/흡연구역_이미지_예시.jpg"
    ],
    "source": "공공데이터",
    "manage": "",
    "district": "광진구"
  },
  {
    "id": "gjc-12",
    "title": "만화카페 라이브러리",
    "address": "서울특별시 광진구 아차산로 370",
    "lat": 37.5364473570775,
    "lng": 127.084052089481,
    "type": "cafe",
    "description": "흡연실이 있는 '만화카페 라이브러리'입니다.",
    "form": "폐쇄형",
    "images": [
      "images/흡연구역_이미지_예시.jpg"
    ],
    "source": "공공데이터",
    "manage": "",
    "district": "광진구"
  },
  {
    "id": "grp-1",
    "title": "신도림역 남측광장 흡연구역",
    "address": "서울특별시 구로구 구로동 3-78",
    "lat": 37.5076285774197,
    "lng": 126.891086005465,
    "type": "public",
    "description": "신도림역 남측광장에 위치한 흡연구역입니다.",
    "form": "반개방형",
    "images": [],
    "source": "공공데이터",
    "manage": "",
    "district": "구로구"
  },
  {
    "id": "grp-2",
    "title": "신도림역 2번 출구 흡연구역",
    "address": "서울특별시 구로구 신도림동 460-26",
    "lat": 37.50782638773846,
    "lng": 126.89181567433944,
    "type": "public",
    "description": "신도림역 2번 출구에 위치한 흡연구역입니다.",
    "form": "",
    "images": [],
    "source": "공공데이터",
    "manage": "",
    "district": "구로구"
  },
  {
    "id": "grb-1",
    "title": "고척돔구장 흡연구역",
    "address": "서울특별시 구로구 경인로 430",
    "lat": 37.4982125677913,
    "lng": 126.867088741096,
    "type": "building",
    "description": "고척돔구장 흡연구역입니다.",
    "form": "",
    "images": [],
    "source": "공공데이터",
    "manage": "",
    "district": "구로구"
  },
  {
    "id": "grb-2",
    "title": "구로성심병원 흡연구역",
    "address": "서울특별시 구로구 경인로 427",
    "lat": 37.4996468654605,
    "lng": 126.866358244952,
    "type": "building",
    "description": "구로성심병원 흡연구역입니다.",
    "form": "",
    "images": [],
    "source": "공공데이터",
    "manage": "",
    "district": "구로구"
  },
  {
    "id": "grb-3",
    "title": "고대구로병원 흡연구역",
    "address": "서울특별시 구로구 구로동로 148",
    "lat": 37.4911503253664,
    "lng": 126.884511034177,
    "type": "building",
    "description": "고대구로병원 흡연구역입니다.",
    "form": "",
    "images": [],
    "source": "공공데이터",
    "manage": "",
    "district": "구로구"
  },
  {
    "id": "grb-4",
    "title": "지하이시티 흡연구역",
    "address": "서울특별시 구로구 구로동 237",
    "lat": 37.4819554025522,
    "lng": 126.892280813777,
    "type": "building",
    "description": "지하이시티 흡연구역입니다.",
    "form": "",
    "images": [],
    "source": "공공데이터",
    "manage": "",
    "district": "구로구"
  },
  {
    "id": "grb-5",
    "title": "신도림테크노마트 흡연구역",
    "address": "서울특별시 구로구 구로동 3-25",
    "lat": 37.5069739187173,
    "lng": 126.890319120085,
    "type": "building",
    "description": "신도림테크노마트 북서족 철로변측 인도공간에 위치한 흡연구역입니다.",
    "form": "",
    "images": [],
    "source": "공공데이터",
    "manage": "",
    "district": "구로구"
  },
  {
    "id": "nwp-1",
    "title": "중계근린공원 흡연구역",
    "address": "서울특별시 노원구 중계동 507",
    "lat": 37.63895930569047,
    "lng": 127.06541936759473,
    "type": "public",
    "description": "중계근린공원 주차장에 위치한 흡연구역입니다.",
    "form": "반개방형",
    "images": [
      "images/nwp_1_1.jpg",
      "images/nwp_1_2.jpg"
    ],
    "source": "공공데이터",
    "manage": "",
    "district": "노원구"
  },
  {
    "id": "nwp-2",
    "title": "등나무문화공원 흡연구역",
    "address": "서울특별시 노원구 중계동 508-1",
    "lat": 37.63984532097788,
    "lng": 127.0679920826698,
    "type": "public",
    "description": "등나무문화공원 주차장에 위치한 흡연구역입니다.",
    "form": "폐쇄형",
    "images": [
      "images/nwp_2_1.jpg",
      "images/nwp_2_2.jpg",
      "images/nwp_2_3.jpg"
    ],
    "source": "공공데이터",
    "manage": "",
    "district": "노원구"
  },
  {
    "id": "nwp-3",
    "title": "불암산스포츠타운 흡연구역",
    "address": "서울특별시 노원구 공릉동 141",
    "lat": 37.63861962670001,
    "lng": 127.08266040220036,
    "type": "public",
    "description": "불암산스포츠타운 흡연구역입니다.",
    "form": "밀폐형",
    "images": [
      "images/nwp_3_1.jpg",
      "images/nwp_3_2.jpg"
    ],
    "source": "공공데이터",
    "manage": "",
    "district": "노원구"
  },
  {
    "id": "nwp-4",
    "title": "수락산스포츠타운 흡연구역",
    "address": "서울특별시 노원구 상계동 121",
    "lat": 37.6685784594935,
    "lng": 127.07134790683,
    "type": "public",
    "description": "수락산스포츠타운 흡연구역입니다.",
    "form": "밀폐형",
    "images": [],
    "source": "공공데이터",
    "manage": "",
    "district": "노원구"
  },
  {
    "id": "nwp-5",
    "title": "육군사관학교 체육관 흡연구역",
    "address": "서울특별시 노원구 공릉동 1-1",
    "lat": 37.6237395490484,
    "lng": 127.101093310976,
    "type": "public",
    "description": "육군사관학교 체육관 흡연구역입니다.",
    "form": "밀폐형",
    "images": [],
    "source": "공공데이터",
    "manage": "",
    "district": "노원구"
  },
  {
    "id": "nwp-6",
    "title": "마들스포츠타운 흡연구역",
    "address": "서울특별시 노원구 상계동 770-2",
    "lat": 37.6441600064637,
    "lng": 127.058299587221,
    "type": "public",
    "description": "마들스포츠타운에 위치한 흡연구역입니다.",
    "form": "밀폐형",
    "images": [],
    "source": "공공데이터",
    "manage": "",
    "district": "노원구"
  },
  {
    "id": "nwp-7",
    "title": "노원구 문화의 거리 담배꽁초수거함",
    "address": "서울특별시 노원구 상계동 616-20",
    "lat": 37.6558447760889,
    "lng": 127.062841404124,
    "type": "public",
    "description": "노원구 문화의 거리에 설치된 담배꽁초수거함입니다.",
    "form": "개방형",
    "images": [
      "images/nwp_7_1.jpg"
    ],
    "source": "관리자 등록",
    "manage": "",
    "district": "노원구"
  },
  {
    "id": "nwc-1",
    "title": "투썸플레이스 노원문화의거리점",
    "address": "서울특별시 노원구 상계동 593-14",
    "lat": 37.65639257155359,
    "lng": 127.06267516269521,
    "type": "cafe",
    "description": "흡연실이 있는 카페 '투썸플레이스 노원문화의 거리점'입니다.",
    "form": "밀폐형",
    "images": [
      "images/nwc_1_1.jpg",
      "images/nwc_1_2.jpg",
      "images/nwc_1_3.jpg",
      "images/nwc_1_4.jpg"
    ],
    "source": "관리자 등록",
    "manage": "",
    "district": "노원구"
  },
  {
    "id": "nwc-2",
    "title": "coffee vesco",
    "address": "서울특별시 노원구 상계동 693-2",
    "lat": 37.656048748979835,
    "lng": 127.06114497456392,
    "type": "cafe",
    "description": "흡연실이 있는 'coffee vesco'입니다.",
    "form": "밀폐형",
    "images": [],
    "source": "관리자 등록",
    "manage": "",
    "district": "노원구"
  },
  {
    "id": "nwc-3",
    "title": "탐앤탐스 티티클럽 노원점",
    "address": "서울특별시 노원구 상계동 292-1",
    "lat": 37.6553400927192,
    "lng": 127.063761516004,
    "type": "cafe",
    "description": "흡연실이 있는 탐앤탐스 티티클럽 노원점입니다.",
    "form": "반개방형",
    "images": [
      "images/nwc_2_1.jpg",
      ""
    ],
    "source": "관리자 등록",
    "manage": "",
    "district": "노원구"
  },
  {
    "id": "nwc-4",
    "title": "할리스 노원문화의거리점",
    "address": "서울특별시 노원구 상계동 332-1 광장교회",
    "lat": 37.6558130080977,
    "lng": 127.06394675429776,
    "type": "cafe",
    "description": "흡연실이 있는 '할리스 노원문화의거리점'입니다.",
    "form": "밀폐형",
    "images": [],
    "source": "관리자 등록",
    "manage": "",
    "district": "노원구"
  },
  {
    "id": "nwc-5",
    "title": "보드게임카페 레드버튼 노원점",
    "address": "서울특별시 노원구 상계동 617",
    "lat": 37.65546917948607,
    "lng": 127.06245906907245,
    "type": "cafe",
    "description": "흡연실이 있는 '레드버튼 노원점'입니다.",
    "form": "밀폐형",
    "images": [],
    "source": "관리자 등록",
    "manage": "",
    "district": "노원구"
  },
  {
    "id": "nwb-1",
    "title": "롯데백화점 1층 야외 흡연구역",
    "address": "서울특별시 노원구 상계동 606-19",
    "lat": 37.6552714471279,
    "lng": 127.062225681252,
    "type": "building",
    "description": "롯데백화점 1층 외부에 위치한 흡연구역입니다.",
    "form": "개방형",
    "images": [
      "images/nwb_1_1.jpg"
    ],
    "source": "관리자 등록",
    "manage": "",
    "district": "노원구"
  },
  {
    "id": "ddmp-1",
    "title": "청량리역 광장 흡연구역",
    "address": "서울특별시 동대문구 전농동 591-52",
    "lat": 37.580570596317145,
    "lng": 127.04666289772435,
    "type": "public",
    "description": "청량리역 광장에 위치한 흡연구역입니다.",
    "form": "밀폐형",
    "images": [],
    "source": "공공데이터",
    "manage": "",
    "district": "동대문구"
  },
  {
    "id": "ddmp-2",
    "title": "청량리역 흡연구역",
    "address": "서울특별시 동대문구 전농1동",
    "lat": 37.58018756072303,
    "lng": 127.0469485159075,
    "type": "public",
    "description": "청량리역 부근에 위치한 흡연구역입니다.",
    "form": "반개방형",
    "images": [],
    "source": "관리자등록",
    "manage": "",
    "district": "동대문구"
  },
  {
    "id": "ddmp-3",
    "title": "동대문구청 흡연구역",
    "address": "서울특별시 동대문구 천호대로 145",
    "lat": 37.5743917161622,
    "lng": 127.039896580148,
    "type": "public",
    "description": "동대문구청 1층과 5층에 위치한 흡연구역입니다.",
    "form": "개방형",
    "images": [],
    "source": "공공데이터",
    "manage": "",
    "district": "동대문구"
  },
  {
    "id": "ddmb-1",
    "title": "경희의료원 흡연구역",
    "address": "서울특별시 동대문구 경희대로 23",
    "lat": 37.5937762050989,
    "lng": 127.050741696591,
    "type": "building",
    "description": "경희의료원 1층에 위치한 흡연구역입니다.",
    "form": "개방형",
    "images": [],
    "source": "공공데이터",
    "manage": "",
    "district": "동대문구"
  },
  {
    "id": "ddmb-2",
    "title": "삼육서울병원 흡연구역",
    "address": "서울특별시 동대문구 망우로82",
    "lat": 37.5862119387672,
    "lng": 127.06355328121,
    "type": "building",
    "description": "삼육서울병원 1층에 위치한 흡연구역입니다.",
    "form": "폐쇄형",
    "images": [],
    "source": "공공데이터",
    "manage": "",
    "district": "동대문구"
  },
  {
    "id": "djp-1",
    "title": "노량진컵밥거리 흡연구역",
    "address": "서울특별시 동작구 노량진동 148-87",
    "lat": 37.5135121968465,
    "lng": 126.945292650858,
    "type": "public",
    "description": "노량진컵밥거리 흡연구역입니다.",
    "form": "",
    "images": [],
    "source": "공공데이터",
    "manage": "동작구 보건소 건강증진과",
    "district": "동작구"
  },
  {
    "id": "djp-2",
    "title": "JH빌딩 앞 흡연구역",
    "address": "서울특별시 동작구 노량진로 196",
    "lat": 37.5130128722104,
    "lng": 126.947502604328,
    "type": "public",
    "description": "JH빌딩 앞에 위치한 흡연구역입니다.",
    "form": "",
    "images": [],
    "source": "공공데이터",
    "manage": "",
    "district": "동작구"
  },
  {
    "id": "mpp-1",
    "title": "상암동 흡연구역",
    "address": "서울특별시 마포구 상암산로 66-82",
    "lat": "",
    "lng": "",
    "type": "public",
    "description": "상암동 흡연구역입니다.",
    "form": "반개방형",
    "images": [],
    "source": "공공데이터",
    "manage": "",
    "district": "마포구"
  },
  {
    "id": "mpp-2",
    "title": "마포농수산물시장 흡연구역",
    "address": "서울특별시 마포구 성산2동 533-1",
    "lat": 37.5650863361341,
    "lng": 126.898138678404,
    "type": "public",
    "description": "마포농수산물시장 흡연구역입니다.",
    "form": "개방형",
    "images": [],
    "source": "공공데이터",
    "manage": "",
    "district": "마포구"
  },
  {
    "id": "mpp-3",
    "title": "서부운전면허시험장 흡연구역",
    "address": "서울특별시 마포구 월드컵로42길 13",
    "lat": 37.5787580201272,
    "lng": 126.880806276364,
    "type": "public",
    "description": "서부운전면허시험장 흡연구역입니다.",
    "form": "개방형",
    "images": [],
    "source": "공공데이터",
    "manage": "",
    "district": "마포구"
  },
  {
    "id": "mpp-4",
    "title": "마포구청 흡연구역",
    "address": "서울특별시 마포구 월드컵로 212",
    "lat": 37.5663128370109,
    "lng": 126.901615668932,
    "type": "public",
    "description": "마포구청 흡연구역입니다.",
    "form": "폐쇄형",
    "images": [],
    "source": "공공데이터",
    "manage": "",
    "district": "마포구"
  },
  {
    "id": "sdmp-1",
    "title": "서대문구청 흡연구역",
    "address": "서울특별시 서대문구 연희로 248",
    "lat": 37.5791546257808,
    "lng": 126.936759175119,
    "type": "public",
    "description": "서대문구청 옥상에 위치한 흡연구역입니다.",
    "form": "폐쇄형",
    "images": [],
    "source": "공공데이터",
    "manage": "",
    "district": "서대문구"
  },
  {
    "id": "sdmp-2",
    "title": "서대문구청 흡연구역",
    "address": "서울특별시 서대문구 연희로 248",
    "lat": 37.5791546257808,
    "lng": 126.936759175119,
    "type": "public",
    "description": "서대문구청 1층 정자에 위치한 흡연구역입니다.",
    "form": "개방형",
    "images": [],
    "source": "공공데이터",
    "manage": "",
    "district": "서대문구"
  },
  {
    "id": "sdmb-1",
    "title": "연세세브란스병원 흡연구역",
    "address": "서울특별시 서대문구 연세로 50-1",
    "lat": 37.563674036531,
    "lng": 126.941917689273,
    "type": "building",
    "description": "세브란스병원 장례식장 1층에 위치한 흡연구역입니다.",
    "form": "폐쇄형",
    "images": [],
    "source": "공공데이터",
    "manage": "",
    "district": "서대문구"
  },
  {
    "id": "sdmb-2",
    "title": "명지대학교 기숙사 흡연구역",
    "address": "서울특별시 서대문구 거북골로34",
    "lat": 37.5803770223812,
    "lng": 126.921348530876,
    "type": "building",
    "description": "명지대학교 1층 기숙사 옆에 위치한 흡연구역입니다.",
    "form": "폐쇄형",
    "images": [],
    "source": "공공데이터",
    "manage": "",
    "district": "서대문구"
  },
  {
    "id": "sdmb-3",
    "title": "현대백화점 유플렉스 신촌점 흡연구역",
    "address": "서울특별시 서대문구 연세로 13",
    "lat": 37.5567378385686,
    "lng": 126.936559696179,
    "type": "building",
    "description": "현대백화점 유플렉스 신촌점 옥상에 위치한 흡연구역입니다.",
    "form": "개방형",
    "images": [],
    "source": "공공데이터",
    "manage": "",
    "district": "서대문구"
  },
  {
    "id": "sdmb-4",
    "title": "현대백화점 신촌점 흡연구역",
    "address": "서울특별시 서대문구 신촌로83",
    "lat": 37.5560830579515,
    "lng": 126.935844876509,
    "type": "building",
    "description": "현대백화점 신촌점 옥상에 위치한 흡연구역입니다.",
    "form": "개방형",
    "images": [],
    "source": "공공데이터",
    "manage": "",
    "district": "서대문구"
  },
  {
    "id": "scp-1",
    "title": "강남역 흡연구역",
    "address": "서울특별시 서초구 서초동 1319-5",
    "lat": 37.4973255149592,
    "lng": 127.027281332446,
    "type": "public",
    "description": "강남역 7번 출구와 8번 출구 사이 보도에 위치한 흡연구역입니다.",
    "form": "개방형",
    "images": [
      "images/흡연구역_이미지_예시.jpg"
    ],
    "source": "공공데이터",
    "manage": "서초구 보건소, 청소행정과",
    "district": "서초구"
  },
  {
    "id": "scp-2",
    "title": "그린골프장 앞",
    "address": "서울특별시 서초구 방배동 452-1",
    "lat": 37.478918038684,
    "lng": 126.982936745049,
    "type": "public",
    "description": "방배천 복개도로 그린골프장 앞에 위치한 흡연구역입니다.",
    "form": "개방형",
    "images": [
      "images/흡연구역_이미지_예시.jpg"
    ],
    "source": "공공데이터",
    "manage": "서초구 보건소, 청소행정과",
    "district": "서초구"
  },
  {
    "id": "scp-3",
    "title": "느린마을양조장 흡연구역",
    "address": "서울특별시 서초구 강남대로27길 7-9",
    "lat": 37.4789453389777,
    "lng": 127.037960314587,
    "type": "public",
    "description": "느린마을양조장 앞에 위치한 흡연구역입니다.",
    "form": "비대면형",
    "images": [
      "images/흡연구역_이미지_예시.jpg"
    ],
    "source": "공공데이터",
    "manage": "서초구 보건소, 건강정책과",
    "district": "서초구"
  },
  {
    "id": "scp-4",
    "title": "동산마을구립주차장 흡연구역",
    "address": "서울특별시 서초구 강남대로8길 77",
    "lat": 37.4700463612353,
    "lng": 127.044349044238,
    "type": "public",
    "description": "동산마을구립주차장에 위치한 흡연구역입니다.",
    "form": "라인형",
    "images": [
      "images/흡연구역_이미지_예시.jpg"
    ],
    "source": "공공데이터",
    "manage": "서초구 보건소, 건강정책과",
    "district": "서초구"
  },
  {
    "id": "scp-5",
    "title": "명동칼국수 앞 흡연구역",
    "address": "서울특별시 서초구 방배동 450-14",
    "lat": 37.4777565547075,
    "lng": 126.982987206043,
    "type": "public",
    "description": "방배천 복개도로 명동칼국수 앞에 위치한 흡연구역입니다.",
    "form": "개방형",
    "images": [
      "images/흡연구역_이미지_예시.jpg"
    ],
    "source": "공공데이터",
    "manage": "서초구 보건소, 청소행정과",
    "district": "서초구"
  },
  {
    "id": "scp-6",
    "title": "방배경찰서 흡연구역",
    "address": "서울특별시 서초구 방배동 455-10",
    "lat": 37.4813951950941,
    "lng": 126.983019734265,
    "type": "public",
    "description": "방배천 복개도로 방배경찰서 앞에 위치한 흡연구역입니다.",
    "form": "개방형",
    "images": [
      "images/흡연구역_이미지_예시.jpg"
    ],
    "source": "공공데이터",
    "manage": "서초구 보건소, 청소행정과",
    "district": "서초구"
  },
  {
    "id": "scp-7",
    "title": "방배역 흡연구역",
    "address": "서울특별시 서초구 방배동 910-9",
    "lat": 37.482179531164,
    "lng": 126.996886364723,
    "type": "public",
    "description": "방배역 3번 출구 먹자골목 입구에 위치한 흡연구역입니다.",
    "form": "개방형",
    "images": [
      "images/흡연구역_이미지_예시.jpg"
    ],
    "source": "공공데이터",
    "manage": "서초구 보건소, 청소행정과",
    "district": "서초구"
  },
  {
    "id": "scp-8",
    "title": "비스텔타워 흡연구역",
    "address": "서울특별시 서초구 바우뫼로 128",
    "lat": 37.4755193948612,
    "lng": 127.035163127189,
    "type": "public",
    "description": "비스텔타워 후면 전신주 주변에 위치한 흡연구역입니다.",
    "form": "라인형",
    "images": [
      "images/흡연구역_이미지_예시.jpg"
    ],
    "source": "공공데이터",
    "manage": "서초구 보건소, 건강정책과",
    "district": "서초구"
  },
  {
    "id": "scp-9",
    "title": "사당역 흡연구역",
    "address": "서울특별시 서초구 ",
    "lat": 37.483588810333,
    "lng": 127.032734543897,
    "type": "public",
    "description": "사당역 1번 출구와 2번 출구 사이 보도에 위치한 흡연구역입니다.",
    "form": "개방형",
    "images": [
      "images/흡연구역_이미지_예시.jpg"
    ],
    "source": "공공데이터",
    "manage": "서초구 보건소, 건강정책과",
    "district": "서초구"
  },
  {
    "id": "scp-10",
    "title": "서울시공공자전거 수리센터 흡연구역",
    "address": "서울특별시 서초구 방배동 438-38",
    "lat": 37.4840206508222,
    "lng": 126.982446350127,
    "type": "public",
    "description": "서울시공공자전거 수리센터 옆에 위치한 흡연구역입니다.",
    "form": "개방형",
    "images": [
      "images/흡연구역_이미지_예시.jpg"
    ],
    "source": "공공데이터",
    "manage": "서초구 보건소, 청소행정과",
    "district": "서초구"
  },
  {
    "id": "scp-11",
    "title": "서초구청 흡연구역",
    "address": "서울특별시 서초구",
    "lat": 37.483588810333,
    "lng": 127.032734543897,
    "type": "public",
    "description": "서초구청 주차장 자판기 옆에 위치한 흡연구역입니다.",
    "form": "폐쇄형",
    "images": [
      "images/흡연구역_이미지_예시.jpg"
    ],
    "source": "공공데이터",
    "manage": "서초구청, 행정지원과",
    "district": "서초구"
  },
  {
    "id": "scp-12",
    "title": "서초종합체육센터 흡연구역",
    "address": "서울특별시 서초구 원지동 23",
    "lat": 37.4593560711541,
    "lng": 127.040761086963,
    "type": "public",
    "description": "서초종합체육센터 입구에 위치한 흡연구역입니다.",
    "form": "개방형",
    "images": [
      "images/흡연구역_이미지_예시.jpg"
    ],
    "source": "공공데이터",
    "manage": "서초구 보건소, 서초종합체육관",
    "district": "서초구"
  },
  {
    "id": "scp-13",
    "title": "서희타워 옆 흡연구역",
    "address": "서울특별시 서초구 서초동 1366-4",
    "lat": 37.4849093722837,
    "lng": 127.03290087608,
    "type": "public",
    "description": "서희타워 옆 이면도로에 위치한 흡연구역입니다.",
    "form": "라인형",
    "images": [
      "images/흡연구역_이미지_예시.jpg"
    ],
    "source": "공공데이터",
    "manage": "서초구 보건소, 서희빌딩",
    "district": "서초구"
  },
  {
    "id": "scp-14",
    "title": "스타벅스 앞 흡연구역",
    "address": "서울특별시 서초구 서초동 1327-5",
    "lat": 37.4956241314633,
    "lng": 127.027722755059,
    "type": "public",
    "description": "스타벅스 앞에 위치한 흡연구역입니다.",
    "form": "개방형",
    "images": [
      "images/흡연구역_이미지_예시.jpg"
    ],
    "source": "공공데이터",
    "manage": "서초구 보건소, 청소행정과",
    "district": "서초구"
  },
  {
    "id": "scp-15",
    "title": "양재동 흡연구역",
    "address": "서울특별시 서초구 양재천로21길 29",
    "lat": 37.477006428584,
    "lng": 127.0391511592,
    "type": "public",
    "description": "녹지 사이 보도에 위치한 흡연구역입니다.",
    "form": "비대면형",
    "images": [
      "images/흡연구역_이미지_예시.jpg"
    ],
    "source": "공공데이터",
    "manage": "서초구 보건소, 건강정책과",
    "district": "서초구"
  },
  {
    "id": "scp-16",
    "title": "양재동 흡연구역",
    "address": "서울특별시 서초구 마방로10길 25",
    "lat": 37.4766148844181,
    "lng": 127.043922527512,
    "type": "public",
    "description": "건물 주차장 기업은행 지주간판 도로에 위치한 흡연구역입니다.",
    "form": "라인형",
    "images": [
      "images/흡연구역_이미지_예시.jpg"
    ],
    "source": "공공데이터",
    "manage": "서초구 보건소, 건강정책과",
    "district": "서초구"
  },
  {
    "id": "scp-17",
    "title": "양재동 흡연구역",
    "address": "서울특별시 서초구 논현로1길 23",
    "lat": 37.4715216810609,
    "lng": 127.050403679286,
    "type": "public",
    "description": "아파트 외부 보도 가각지점에 위치한 흡연구역입니다.",
    "form": "라인형",
    "images": [
      "images/흡연구역_이미지_예시.jpg"
    ],
    "source": "공공데이터",
    "manage": "서초구 보건소, 건강정책과",
    "district": "서초구"
  },
  {
    "id": "scp-18",
    "title": "양재동 흡연구역",
    "address": "서울특별시 서초구 강남대로6길 60-23",
    "lat": 37.467588011231,
    "lng": 127.044911100198,
    "type": "public",
    "description": "건물 후면 양재대로변에 위치한 흡연구역입니다.",
    "form": "라인형",
    "images": [
      "images/흡연구역_이미지_예시.jpg"
    ],
    "source": "공공데이터",
    "manage": "서초구 보건소, 건강정책과",
    "district": "서초구"
  },
  {
    "id": "scp-19",
    "title": "양재동 흡연구역",
    "address": "서울특별시 서초구 강남대로 4길 5",
    "lat": 37.4668411609909,
    "lng": 127.042480301043,
    "type": "public",
    "description": "카센터 앞 보도에 위치한 흡연구역입니다.",
    "form": "라인형",
    "images": [
      "images/흡연구역_이미지_예시.jpg"
    ],
    "source": "공공데이터",
    "manage": "서초구 보건소, 건강정책과",
    "district": "서초구"
  },
  {
    "id": "scp-20",
    "title": "양재동 흡연구역",
    "address": "서울특별시 서초구 강남대로 6길 16",
    "lat": 37.4671962305932,
    "lng": 127.042029132512,
    "type": "public",
    "description": "건물 앞 녹지사이 보도에 위치한 흡연구역입니다.",
    "form": "라인형",
    "images": [
      "images/흡연구역_이미지_예시.jpg"
    ],
    "source": "공공데이터",
    "manage": "서초구 보건소, 건강정책과",
    "district": "서초구"
  },
  {
    "id": "scp-21",
    "title": "양재동 흡연구역",
    "address": "서울특별시 서초구 강남대로8길 3",
    "lat": 37.4678345771936,
    "lng": 127.041318574137,
    "type": "public",
    "description": "건물 앞 보도 끝지점에 위치한 흡연구역입니다.",
    "form": "라인형",
    "images": [
      "images/흡연구역_이미지_예시.jpg"
    ],
    "source": "공공데이터",
    "manage": "서초구 보건소, 건강정책과",
    "district": "서초구"
  },
  {
    "id": "scp-22",
    "title": "양재동 흡연구역",
    "address": "서울특별시 서초구 강남대로10길 21",
    "lat": 37.4686000050228,
    "lng": 127.040482595477,
    "type": "public",
    "description": "건물 앞 녹지사이 보도에 위치한 흡연구역입니다.",
    "form": "비대면형",
    "images": [
      "images/흡연구역_이미지_예시.jpg"
    ],
    "source": "공공데이터",
    "manage": "서초구 보건소, 건강정책과",
    "district": "서초구"
  },
  {
    "id": "scp-23",
    "title": "양재동 흡연구역",
    "address": "서울특별시 서초구 마방로2길 26",
    "lat": 37.4725047161063,
    "lng": 127.039140784599,
    "type": "public",
    "description": "건물 앞 녹지사이 보도에 위치한 흡연구역입니다.",
    "form": "비대면형",
    "images": [
      "images/흡연구역_이미지_예시.jpg"
    ],
    "source": "공공데이터",
    "manage": "서초구 보건소, 건강정책과",
    "district": "서초구"
  },
  {
    "id": "scp-24",
    "title": "양재동 흡연구역",
    "address": "서울특별시 서초구 강남대로 30길 7",
    "lat": 0,
    "lng": 0,
    "type": "public",
    "description": "카센터 옆 기존 주차구역 (영동교회 맞은편)에 위치한 흡연구역입니다.",
    "form": "라인형",
    "images": [
      "images/흡연구역_이미지_예시.jpg"
    ],
    "source": "공공데이터",
    "manage": "서초구 보건소, 건강정책과",
    "district": "서초구"
  },
  {
    "id": "scp-25",
    "title": "양재동 흡연구역",
    "address": "서울특별시 서초구 남부순환로 2636",
    "lat": 0,
    "lng": 0,
    "type": "public",
    "description": "건물 우측 골목 (오선체 좌측건물)에 위치한 흡연구역입니다.",
    "form": "라인형",
    "images": [
      "images/흡연구역_이미지_예시.jpg"
    ],
    "source": "공공데이터",
    "manage": "서초구 보건소, 건강정책과",
    "district": "서초구"
  },
  {
    "id": "scp-26",
    "title": "양재동 흡연구역",
    "address": "서울특별시 서초구 강남대로 148",
    "lat": 37.4778879666261,
    "lng": 127.039180335385,
    "type": "public",
    "description": "서울마더스성형외과 앞 녹지 사이 보도에 위치한 흡연구역입니다.",
    "form": "라인형",
    "images": [
      "images/흡연구역_이미지_예시.jpg"
    ],
    "source": "공공데이터",
    "manage": "서초구 보건소, 건강정책과",
    "district": "서초구"
  },
  {
    "id": "scp-27",
    "title": "양재동 흡연구역",
    "address": "서울특별시 서초구 양재천로21길 3",
    "lat": 37.4758044816939,
    "lng": 127.039151097456,
    "type": "public",
    "description": "건물 앞 보도 가각지점에 위치한 흡연구역입니다.",
    "form": "라인형",
    "images": [
      "images/흡연구역_이미지_예시.jpg"
    ],
    "source": "공공데이터",
    "manage": "서초구 보건소, 건강정책과",
    "district": "서초구"
  },
  {
    "id": "scp-28",
    "title": "양재동 흡연구역",
    "address": "서울특별시 서초구 양재천로19길 34",
    "lat": 37.476851688713,
    "lng": 127.038161171315,
    "type": "public",
    "description": "건물 앞 녹지 사이 보도에 위치한 흡연구역입니다.",
    "form": "라인형",
    "images": [
      "images/흡연구역_이미지_예시.jpg"
    ],
    "source": "공공데이터",
    "manage": "서초구 보건소, 건강정책과",
    "district": "서초구"
  },
  {
    "id": "scp-29",
    "title": "양재동 흡연구역",
    "address": "서울특별시 서초구 바우뫼로21길 10",
    "lat": 37.4758936259801,
    "lng": 127.035022551187,
    "type": "public",
    "description": "진입로 입구에 위치한 흡연구역입니다.",
    "form": "비대면형",
    "images": [
      "images/흡연구역_이미지_예시.jpg"
    ],
    "source": "공공데이터",
    "manage": "서초구 보건소, 건강정책과",
    "district": "서초구"
  },
  {
    "id": "scp-30",
    "title": "양재동 흡연구역",
    "address": "서울특별시 서초구 논현로 31",
    "lat": 37.4737066919433,
    "lng": 127.048316208987,
    "type": "public",
    "description": "빌딩 앞 사거리 가각지점에 위치한 흡연구역입니다.",
    "form": "비대면형",
    "images": [
      "images/흡연구역_이미지_예시.jpg"
    ],
    "source": "공공데이터",
    "manage": "서초구 보건소, 건강정책과",
    "district": "서초구"
  },
  {
    "id": "scp-31",
    "title": "양재동 흡연구역",
    "address": "서울특별시 서초구 논현로 27",
    "lat": 37.4732544154171,
    "lng": 127.048680840995,
    "type": "public",
    "description": "소호정 주차장에 위치한 흡연구역입니다.",
    "form": "라인형",
    "images": [
      "images/흡연구역_이미지_예시.jpg"
    ],
    "source": "공공데이터",
    "manage": "서초구 보건소, 건강정책과",
    "district": "서초구"
  },
  {
    "id": "scp-32",
    "title": "양재동 흡연구역",
    "address": "서울특별시 서초구 논현로 71",
    "lat": 37.4762816798535,
    "lng": 127.045616670748,
    "type": "public",
    "description": "평가옥 앞에 위치한 흡연구역입니다.",
    "form": "비대면형",
    "images": [
      "images/흡연구역_이미지_예시.jpg"
    ],
    "source": "공공데이터",
    "manage": "서초구 보건소, 건강정책과",
    "district": "서초구"
  },
  {
    "id": "scp-33",
    "title": "양재동 흡연구역",
    "address": "서울특별시 서초구 동산로2길 27",
    "lat": 37.4687442176181,
    "lng": 127.04264348086,
    "type": "public",
    "description": "한성생고기 앞에 위치한 흡연구역입니다.",
    "form": "라인형",
    "images": [
      "images/흡연구역_이미지_예시.jpg"
    ],
    "source": "공공데이터",
    "manage": "서초구 보건소, 건강정책과",
    "district": "서초구"
  },
  {
    "id": "scp-34",
    "title": "양재동 흡연구역",
    "address": "서울특별시 서초구 양재동 316",
    "lat": 37.470733738747,
    "lng": 127.039265567762,
    "type": "public",
    "description": "띠녹지 안에 위치한 흡연구역입니다.",
    "form": "비대면형",
    "images": [
      "images/흡연구역_이미지_예시.jpg"
    ],
    "source": "공공데이터",
    "manage": "서초구 보건소, 건강정책과",
    "district": "서초구"
  },
  {
    "id": "scp-35",
    "title": "양재동 흡연구역",
    "address": "서울특별시 서초구 강남대로27",
    "lat": 37.4682787075426,
    "lng": 127.039136433366,
    "type": "public",
    "description": "AT센터 앞에 위치한 흡연구역입니다.",
    "form": "비대면형",
    "images": [
      "images/흡연구역_이미지_예시.jpg"
    ],
    "source": "공공데이터",
    "manage": "서초구 보건소, 건강정책과",
    "district": "서초구"
  },
  {
    "id": "scp-36",
    "title": "양재동 흡연구역",
    "address": "서울특별시 서초구 서초동 1500-6",
    "lat": 37.4904880058339,
    "lng": 127.007104519796,
    "type": "public",
    "description": "꽃마을1소공원 남측 부지 내에 위치한 흡연구역입니다.",
    "form": "비대면형",
    "images": [
      "images/흡연구역_이미지_예시.jpg"
    ],
    "source": "공공데이터",
    "manage": "서초구 보건소, 건강정책과",
    "district": "서초구"
  },
  {
    "id": "scp-37",
    "title": "양재동 흡연구역",
    "address": "서울특별시 서초구 반포동 63-7",
    "lat": 37.5006991944145,
    "lng": 127.003260404186,
    "type": "public",
    "description": "반포효성빌딩 페라리 매장 앞에 위치한 흡연구역입니다.",
    "form": "개방형",
    "images": [
      "images/흡연구역_이미지_예시.jpg"
    ],
    "source": "공공데이터",
    "manage": "서초구 보건소, 건강정책과",
    "district": "서초구"
  },
  {
    "id": "scp-38",
    "title": "양재천 족구장 흡연구역",
    "address": "서울특별시 서초구 양재동 261-22",
    "lat": 37.4761171586196,
    "lng": 127.04170683757,
    "type": "public",
    "description": "양재천 족구장에 위치한 흡연구역입니다.",
    "form": "라인형",
    "images": [
      "images/흡연구역_이미지_예시.jpg"
    ],
    "source": "공공데이터",
    "manage": "서초구 보건소, 건강정책과",
    "district": "서초구"
  },
  {
    "id": "scb-1",
    "title": "고속버스터미널역 3번출구 흡연구역",
    "address": "서울특별시 서초구 반포동 19-11",
    "lat": 37.5048497116637,
    "lng": 127.00487538273,
    "type": "building",
    "description": "고속버스터미널역 3번출구 앞에 위치한 흡연구역입니다.",
    "form": "반개방형",
    "images": [
      "images/흡연구역_이미지_예시.jpg"
    ],
    "source": "공공데이터",
    "manage": "센트럴시티",
    "district": "서초구"
  },
  {
    "id": "scb-2",
    "title": "교보타워 주자창 흡연구역",
    "address": "서울특별시 서초구 강남대로 465",
    "lat": 37.5037560541254,
    "lng": 127.024109539913,
    "type": "building",
    "description": "교보타워 부지주차장 진입로 옆 흡연구역입니다.",
    "form": "개방형",
    "images": [
      "images/흡연구역_이미지_예시.jpg"
    ],
    "source": "공공데이터",
    "manage": "교보타워",
    "district": "서초구"
  },
  {
    "id": "scb-3",
    "title": "서울가정행정법원 흡연구역",
    "address": "서울특별시 서초구 강남대로 193",
    "lat": 37.4812445490019,
    "lng": 127.036189806462,
    "type": "building",
    "description": "서울가정행정법원 청사 출입계단 밑 흡연구역입니다.",
    "form": "반개방형",
    "images": [
      "images/흡연구역_이미지_예시.jpg"
    ],
    "source": "공공데이터",
    "manage": "서울가정법원",
    "district": "서초구"
  },
  {
    "id": "scb-4",
    "title": "센트럴시티 경부선 흡연구역",
    "address": "서울특별시 서초구",
    "lat": 37.483588810333,
    "lng": 127.032734543897,
    "type": "building",
    "description": "센트럴시티 경부선 건물 남쪽 외부 공간에 위치한 흡연구역입니다.",
    "form": "개방형",
    "images": [
      "images/흡연구역_이미지_예시.jpg"
    ],
    "source": "공공데이터",
    "manage": "센트럴시티, 센트럴시티",
    "district": "서초구"
  },
  {
    "id": "scb-5",
    "title": "센트럴시티 경부선 흡연구역 ",
    "address": "서울특별시 서초구",
    "lat": 37.483588810333,
    "lng": 127.032734543897,
    "type": "building",
    "description": "센트럴시티 경부선 하차장 옆에 위치한 흡연구역입니다.",
    "form": "반개방형",
    "images": [
      "images/흡연구역_이미지_예시.jpg"
    ],
    "source": "공공데이터",
    "manage": "센트럴시티, 센트럴시티",
    "district": "서초구"
  },
  {
    "id": "scb-6",
    "title": "센트럴시티 호남선 흡연구역",
    "address": "서울특별시 서초구 신반포로 176",
    "lat": 37.5039351769908,
    "lng": 127.002413006799,
    "type": "building",
    "description": "센트럴시티 호남선 출입구 옆에 위치한 흡연구역입니다.",
    "form": "반개방형",
    "images": [
      "images/흡연구역_이미지_예시.jpg"
    ],
    "source": "공공데이터",
    "manage": "센트럴시티, 센트럴시티",
    "district": "서초구"
  },
  {
    "id": "scb-7",
    "title": "양재환승주차장 흡연구역",
    "address": "서울특별시 서초구 강남대로 221",
    "lat": 37.4836850972087,
    "lng": 127.034117823374,
    "type": "building",
    "description": "양재환승주차장 세븐일레븐 옆에 위치한 흡연구역입니다.",
    "form": "라인형",
    "images": [
      "images/흡연구역_이미지_예시.jpg"
    ],
    "source": "공공데이터",
    "manage": "우리동성개발, 우리동성개발",
    "district": "서초구"
  },
  {
    "id": "scb-8",
    "title": "엘타워 흡연구역",
    "address": "서울특별시 서초구 강남대로 213",
    "lat": 37.4827666361943,
    "lng": 127.034949554107,
    "type": "building",
    "description": "엘타워 뒤 주차장 진입로 옆 흡연구역입니다.",
    "form": "개방형",
    "images": [
      "images/흡연구역_이미지_예시.jpg"
    ],
    "source": "공공데이터",
    "manage": "엘타워",
    "district": "서초구"
  },
  {
    "id": "scb-9",
    "title": "현대기림오피스텔 흡연구역",
    "address": "서울특별시 서초구 서초동 1330-18",
    "lat": 37.4940028900643,
    "lng": 127.028353936967,
    "type": "building",
    "description": "현대기림오피스텔 앞에 위치한 흡연구역입니다.",
    "form": "개방형",
    "images": [
      "images/흡연구역_이미지_예시.jpg"
    ],
    "source": "공공데이터",
    "manage": "서초구 보건소, 청소행정과",
    "district": "서초구"
  },
  {
    "id": "sdp-1",
    "title": "디타워 포레스트 흡연구역",
    "address": "서울특별시 성동구 성수동1가 685-709",
    "lat": 37.544181018104,
    "lng": 127.044672532018,
    "type": "public",
    "description": "디타워 앞에 위치한 흡연구역입니다.",
    "form": "폐쇄형",
    "images": [],
    "source": "공공데이터",
    "manage": "성동구 보건소",
    "district": "성동구"
  },
  {
    "id": "sdp-2",
    "title": "서울숲 포휴 흡연구역",
    "address": "서울특별시 성동구 성수동1가 656-3",
    "lat": 37.5426630844554,
    "lng": 127.04519847143,
    "type": "public",
    "description": "서울숲 호퓨 앞에 위치한 흡연구역입니다.",
    "form": "폐쇄형",
    "images": [],
    "source": "공공데이터",
    "manage": "성동구 보건소",
    "district": "성동구"
  },
  {
    "id": "sdp-3",
    "title": "왕십리역6번출구 인근 자전거보관소 흡연구역",
    "address": "서울특별시 성동구 행당동 168-151",
    "lat": 37.56121082759014,
    "lng": 127.03948639604762,
    "type": "public",
    "description": "왕십리역 6번 출구 뒤에 위치한 흡연구역입니다.",
    "form": "폐쇄형",
    "images": [],
    "source": "공공데이터",
    "manage": "성동구 보건소",
    "district": "성동구"
  },
  {
    "id": "sdp-4",
    "title": "세신빌딩 흡연구역",
    "address": "서울특별시 성동구 도선동 58-1",
    "lat": 37.5628017191711,
    "lng": 127.03397786808,
    "type": "public",
    "description": "세신빌딩 뒤에 위치한 흡연구역입니다.",
    "form": "폐쇄형",
    "images": [],
    "source": "공공데이터",
    "manage": "성동구 보건소",
    "district": "성동구"
  },
  {
    "id": "sdp-5",
    "title": "성수역 3번 출구 교각하부 흡연구역",
    "address": "서울특별시 성동구 성수동2가 276-5",
    "lat": 37.544163679865264,
    "lng": 127.05672525052314,
    "type": "public",
    "description": "성수역 3번 출구에 위치한 흡연구역입니다.",
    "form": "폐쇄형",
    "images": [
      "images/sdp_5_1.jpg",
      "images/sdp_5_2.jpg",
      "images/sdp_5_3.jpg"
    ],
    "source": "공공데이터",
    "manage": "성동구 보건소",
    "district": "성동구"
  },
  {
    "id": "sdp-6",
    "title": "한라시그마벨리 1차 흡연구역",
    "address": "서울특별시 성동구 성수동2가 325-2",
    "lat": 37.5402640310949,
    "lng": 127.055081162801,
    "type": "public",
    "description": "한라시그마벨리 뒤에 위치한 흡연구역입니다.",
    "form": "폐쇄형",
    "images": [],
    "source": "공공데이터",
    "manage": "성동구 보건소",
    "district": "성동구"
  },
  {
    "id": "sdp-7",
    "title": "아크벨리 흡연구역",
    "address": "서울특별시 성동구 성수동2가 277-43",
    "lat": 37.5438726245303,
    "lng": 127.061297770805,
    "type": "public",
    "description": "아크벨리 앞에 위치한 흡연구역입니다.",
    "form": "폐쇄형",
    "images": [],
    "source": "공공데이터",
    "manage": "성동구 보건소",
    "district": "성동구"
  },
  {
    "id": "sdp-8",
    "title": "성수역 SKV1타워 흡연구역",
    "address": "서울특별시 성동구 성수동2가 315-61",
    "lat": 37.543605517281335,
    "lng": 127.05576583524682,
    "type": "public",
    "description": "성수역 SKV1타워 앞에 위치한 흡연구역입니다.",
    "form": "폐쇄형",
    "images": [
      "images/sdp_8_1.jpg",
      "images/sdp_8_2.jpg",
      "images/sdp_8_3.jpg"
    ],
    "source": "공공데이터",
    "manage": "성동구 보건소",
    "district": "성동구"
  },
  {
    "id": "sdp-9",
    "title": "서울숲 IT벨리 흡연구역",
    "address": "서울특별시 성동구 성수동1가 13-164",
    "lat": 37.5474783851249,
    "lng": 127.049895535769,
    "type": "public",
    "description": "서울숲 IT벨리 앞에 위치한 흡연구역입니다.",
    "form": "폐쇄형",
    "images": [],
    "source": "공공데이터",
    "manage": "성동구 보건소",
    "district": "성동구"
  },
  {
    "id": "sdp-10",
    "title": "성수 SKV1센터 흡연구역",
    "address": "서울특별시 성동구 성수동2가 280",
    "lat": 37.5466716767266,
    "lng": 127.066124755547,
    "type": "public",
    "description": "성수 SKV1센터에 위치한 흡연구역입니다.",
    "form": "폐쇄형",
    "images": [],
    "source": "공공데이터",
    "manage": "성동구 보건소",
    "district": "성동구"
  },
  {
    "id": "sdp-11",
    "title": "왕십리역 6번출구 흡연구역",
    "address": "서울특별시 성동구 행당동 1-182",
    "lat": 37.5612035478284,
    "lng": 127.039160880606,
    "type": "public",
    "description": "왕십리역 6번출구에 위치한 흡연구역입니다.",
    "form": "밀폐형",
    "images": [],
    "source": "공공데이터",
    "manage": "성동구 보건소",
    "district": "성동구"
  },
  {
    "id": "sdp-12",
    "title": "왕십리 광장 흡연구역",
    "address": "서울특별시 성동구 왕십리광장로 17",
    "lat": 37.5615584314433,
    "lng": 127.03727103019085,
    "type": "public",
    "description": "왕십리 광장 흡연구역에 위치한 흡연구역입니다.",
    "form": "반개방형",
    "images": [],
    "source": "공공데이터",
    "manage": "성동구 보건소",
    "district": "성동구"
  },
  {
    "id": "sdp-13",
    "title": "성수역 2번출구 흡연구역",
    "address": "서울특별시 성동구 성수동2가 289-30",
    "lat": 37.54445411714374,
    "lng": 127.05700553347785,
    "type": "public",
    "description": "성수역 2번출구에 위치한 흡염구역입니다.",
    "form": "반개방형",
    "images": [],
    "source": "공공데이터",
    "manage": "성동구 보건소",
    "district": "성동구"
  },
  {
    "id": "sbp-1",
    "title": "성북구 보건소 흡연구역",
    "address": "서울특별시 성북구 하월곡동 46-1",
    "lat": 37.602693004394,
    "lng": 127.039534243994,
    "type": "public",
    "description": "성북구 보건소 10층 옥상에 위치한 흡연구역입니다.",
    "form": "개방형",
    "images": [],
    "source": "공공데이터",
    "manage": "성북구 보건소",
    "district": "성북구"
  },
  {
    "id": "sbp-2",
    "title": "성북구청 흡연구역",
    "address": "서울특별시 성북구 삼선동5가 411",
    "lat": 37.5894488967331,
    "lng": 127.016828945008,
    "type": "public",
    "description": "성북구청 12층 옥상에 위치한 흡연구역입니다.",
    "form": "개방형",
    "images": [],
    "source": "공공데이터",
    "manage": "성북구청",
    "district": "성북구"
  },
  {
    "id": "sbp-3",
    "title": "성북구청 흡연구역",
    "address": "서울특별시 성북구 삼선동5가 411",
    "lat": 37.5894488967331,
    "lng": 127.016828945008,
    "type": "public",
    "description": "성북구청 5층 휴게공간에 위치한 흡연구역입니다.",
    "form": "개방형",
    "images": [],
    "source": "공공데이터",
    "manage": "성북구청",
    "district": "성북구"
  },
  {
    "id": "sbb-1",
    "title": "고대안암병원 흡연구역",
    "address": "서울특별시 성북구 안암동5가 126-1",
    "lat": 37.5871448855954,
    "lng": 127.026985172168,
    "type": "building",
    "description": "고대안암병원 출입구 앞 통행로에 위치한 흡연구역입니다.",
    "form": "폐쇄형",
    "images": [],
    "source": "공공데이터",
    "manage": "고대병원",
    "district": "성북구"
  },
  {
    "id": "sbb-2",
    "title": "성북중앙병원 흡연구역",
    "address": "서울특별시 성북구 종암동 10-125",
    "lat": 37.5968749251616,
    "lng": 127.035639921355,
    "type": "building",
    "description": "성북중앙병원 옥상에 위치한 흡연구역입니다.",
    "form": "개방형",
    "images": [],
    "source": "공공데이터",
    "manage": "성북중앙병원",
    "district": "성북구"
  },
  {
    "id": "sbb-3",
    "title": "국민대학교 흡연구역",
    "address": "서울특별시 성북구 정릉동 861-1",
    "lat": 37.6109536602917,
    "lng": 126.997665424874,
    "type": "building",
    "description": "국민대학교 북악관 뒤에 위치한 흡연구역입니다.",
    "form": "개방형",
    "images": [],
    "source": "공공데이터",
    "manage": "국민대학교",
    "district": "성북구"
  },
  {
    "id": "sbb-4",
    "title": "국민대학교 흡연구역",
    "address": "서울특별시 성북구 정릉동 861-1",
    "lat": 37.6109536602917,
    "lng": 126.997665424874,
    "type": "building",
    "description": "국민대학교 도서관 옆에 위치한 흡연구역입니다.",
    "form": "개방형",
    "images": [],
    "source": "공공데이터",
    "manage": "국민대학교",
    "district": "성북구"
  },
  {
    "id": "sbb-5",
    "title": "서경대학교 흡연구역",
    "address": "서울특별시 성북구 정릉동 산16-1",
    "lat": 37.6148685290897,
    "lng": 127.012590467649,
    "type": "building",
    "description": "서경대학교 북악관 앞에 위치한 흡연구역입니다.",
    "form": "폐쇄형",
    "images": [],
    "source": "공공데이터",
    "manage": "서경대학교",
    "district": "성북구"
  },
  {
    "id": "sbb-6",
    "title": "한성대학교 흡연구역",
    "address": "서울특별시 성북구 삼선동2가 389",
    "lat": 37.5827636526186,
    "lng": 127.010254307974,
    "type": "building",
    "description": "한성대학교 학송관 옆에 위치한 흡연구역입니다.",
    "form": "폐쇄형",
    "images": [],
    "source": "공공데이터",
    "manage": "한성대학교",
    "district": "성북구"
  },
  {
    "id": "sbb-7",
    "title": "현대백화점 미아점 흡연구역",
    "address": "서울특별시 성북구 길음동 20-1",
    "lat": 37.6083911092525,
    "lng": 127.02871781073,
    "type": "building",
    "description": "현대백화점 미아점 옥상에 위치한 흡연구역입니다.",
    "form": "폐쇄형",
    "images": [],
    "source": "공공데이터",
    "manage": "현대백화점",
    "district": "성북구"
  },
  {
    "id": "sbb-8",
    "title": "이마트 미아점 흡연구역",
    "address": "서울특별시 성북구 길음동 25-2",
    "lat": 37.6108563263258,
    "lng": 127.029727880853,
    "type": "building",
    "description": "이마트 미아점 주차동 1층에 위치한 흡연구역입니다.",
    "form": "폐쇄형",
    "images": [],
    "source": "공공데이터",
    "manage": "이마트",
    "district": "성북구"
  },
  {
    "id": "spp-1",
    "title": "롯데월드몰 흡연구역",
    "address": "서울특별시 송파구 올림픽로 300",
    "lat": 37.51321024185362,
    "lng": 127.10529932088494,
    "type": "public",
    "description": "롯데월드몰 잔디광장에 위치한 흡연구역입니다.",
    "form": "반개방형",
    "images": [
      "images/흡연구역_이미지_예시.jpg"
    ],
    "source": "공공데이터",
    "manage": "",
    "district": "송파구"
  },
  {
    "id": "spb-1",
    "title": "문정 현대지식산업센터 흡연구역",
    "address": "서울특별시 송파구 법원로 11길 7",
    "lat": 37.4852991782959,
    "lng": 127.119391411935,
    "type": "building",
    "description": "문정 현대지식산업센터 흡연구역입니다.",
    "form": "개방형",
    "images": [],
    "source": "공공데이터",
    "manage": "",
    "district": "송파구"
  },
  {
    "id": "spb-2",
    "title": "가든파이브 흡연구역",
    "address": "서울특별시 송파구 충민로66",
    "lat": 37.4776148442516,
    "lng": 127.124961768886,
    "type": "building",
    "description": "가든파이브 흡연구역입니다.",
    "form": "폐쇄형",
    "images": [],
    "source": "공공데이터",
    "manage": "",
    "district": "송파구"
  },
  {
    "id": "spb-3",
    "title": "문정 SK V1 GL 메트로시티 흡연구역",
    "address": "서울특별시 송파구 128",
    "lat": "",
    "lng": "",
    "type": "building",
    "description": "문정 SK V1 GL 메트로시티 흡연구역입니다.",
    "form": "개방형",
    "images": [],
    "source": "공공데이터",
    "manage": "",
    "district": "송파구"
  },
  {
    "id": "ycp-1",
    "title": "양천구 흡연구역",
    "address": "서울특별시 양천구 목동서로 57",
    "lat": 37.5366321308561,
    "lng": 126.879863427781,
    "type": "public",
    "description": "파리지앙A앞 공영주차장에 위치한 흡연구역입니다.",
    "form": "",
    "images": [
      "images/흡연구역_이미지_예시.jpg"
    ],
    "source": "공공데이터",
    "manage": "",
    "district": "양천구"
  },
  {
    "id": "ycp-2",
    "title": "양천구 흡연구역",
    "address": "서울특별시 양천구 신정중앙로 95",
    "lat": 37.5266158393896,
    "lng": 126.862552997981,
    "type": "public",
    "description": "금별맥주 앞(버스 안 다니는 길)에 위치한 흡연구역입니다.",
    "form": "",
    "images": [
      "images/흡연구역_이미지_예시.jpg"
    ],
    "source": "공공데이터",
    "manage": "",
    "district": "양천구"
  },
  {
    "id": "ycp-3",
    "title": "양천구 흡연구역",
    "address": "서울특별시 양천구 중앙로 276",
    "lat": 37.5208361584987,
    "lng": 126.85288429171,
    "type": "public",
    "description": "신정네거리역 뒤 먹자골목에 위치한 흡연구역입니다.",
    "form": "",
    "images": [
      "images/흡연구역_이미지_예시.jpg"
    ],
    "source": "공공데이터",
    "manage": "",
    "district": "양천구"
  },
  {
    "id": "ycp-4",
    "title": "양천구 흡연구역",
    "address": "서울특별시 양천구 오목로 325",
    "lat": 37.5251074073334,
    "lng": 126.873626981623,
    "type": "public",
    "description": "농협 오목교역점 옆 골목에 위치한 흡연구역입니다.",
    "form": "",
    "images": [
      "images/흡연구역_이미지_예시.jpg"
    ],
    "source": "공공데이터",
    "manage": "",
    "district": "양천구"
  },
  {
    "id": "ycp-5",
    "title": "양천구 흡연구역",
    "address": "서울특별시 양천구 오목로 329",
    "lat": 37.5249139528398,
    "lng": 126.874124388629,
    "type": "public",
    "description": "오목교역 2번 출구 옆에 위치한 흡연구역입니다.",
    "form": "",
    "images": [
      "images/흡연구역_이미지_예시.jpg"
    ],
    "source": "공공데이터",
    "manage": "",
    "district": "양천구"
  },
  {
    "id": "ycp-6",
    "title": "양천구 흡연구역",
    "address": "서울특별시 양천구 목동동로 67",
    "lat": 37.515709326427,
    "lng": 126.862500271377,
    "type": "public",
    "description": "국민은행 양천지점 뒤에 위치한 흡연구역입니다.",
    "form": "",
    "images": [
      "images/흡연구역_이미지_예시.jpg"
    ],
    "source": "공공데이터",
    "manage": "",
    "district": "양천구"
  },
  {
    "id": "ycp-7",
    "title": "양천구 흡연구역",
    "address": "서울특별시 양천구 신정중앙로 103",
    "lat": 37.5265013713269,
    "lng": 126.863371926417,
    "type": "public",
    "description": "버스 안 다니는 길 먹자골목에 위치한 흡연구역입니다.",
    "form": "",
    "images": [
      "images/흡연구역_이미지_예시.jpg"
    ],
    "source": "공공데이터",
    "manage": "",
    "district": "양천구"
  },
  {
    "id": "ycp-8",
    "title": "양천구 흡연구역",
    "address": "서울특별시 양천구 오목로 151-1",
    "lat": 37.5249243144373,
    "lng": 126.85429770672,
    "type": "public",
    "description": "건물 뒤쪽 주차장에 위치한 흡연구역입니다.",
    "form": "",
    "images": [
      "images/흡연구역_이미지_예시.jpg"
    ],
    "source": "공공데이터",
    "manage": "",
    "district": "양천구"
  },
  {
    "id": "ycp-9",
    "title": "양천구 흡연구역",
    "address": "서울특별시 양천구 등촌로 32",
    "lat": 37.5328851583631,
    "lng": 126.864166285292,
    "type": "public",
    "description": "건물과 건물 사이 길 골목에 위치한 흡연구역입니다.",
    "form": "",
    "images": [
      "images/흡연구역_이미지_예시.jpg"
    ],
    "source": "공공데이터",
    "manage": "",
    "district": "양천구"
  },
  {
    "id": "ycp-10",
    "title": "양천구 흡연구역",
    "address": "서울특별시 양천구 오목로 299",
    "lat": 37.5260837006075,
    "lng": 126.87035534357,
    "type": "public",
    "description": "트라팰리스 B동과 닥터로빈 사잇길에 위치한 흡연구역입니다.",
    "form": "",
    "images": [
      "images/흡연구역_이미지_예시.jpg"
    ],
    "source": "공공데이터",
    "manage": "",
    "district": "양천구"
  },
  {
    "id": "ycp-11",
    "title": "양천구 흡연구역",
    "address": "서울특별시 양천구 중앙로43길 14",
    "lat": 37.5204176021651,
    "lng": 126.851340568488,
    "type": "public",
    "description": "아델리체 110동과 122동 사잇길에 위치한 흡연구역입니다.",
    "form": "",
    "images": [
      "images/흡연구역_이미지_예시.jpg"
    ],
    "source": "공공데이터",
    "manage": "",
    "district": "양천구"
  },
  {
    "id": "ycp-12",
    "title": "양천구 흡연구역",
    "address": "서울특별시 양천구 남부순환로83길 53",
    "lat": 37.5180156016829,
    "lng": 126.845086473562,
    "type": "public",
    "description": "신월6동 주민센터 주차장 입구에 위치한 흡연구역입니다.",
    "form": "",
    "images": [
      "images/흡연구역_이미지_예시.jpg"
    ],
    "source": "공공데이터",
    "manage": "",
    "district": "양천구"
  },
  {
    "id": "ycp-13",
    "title": "양천구 흡연구역",
    "address": "서울특별시 양천구 중앙로34길 15",
    "lat": 37.5195212776081,
    "lng": 126.853643186754,
    "type": "public",
    "description": "고기요리와, GS25 사이 전봇대에 위치한 흡연구역입니다.",
    "form": "",
    "images": [
      "images/흡연구역_이미지_예시.jpg"
    ],
    "source": "공공데이터",
    "manage": "",
    "district": "양천구"
  },
  {
    "id": "ycp-14",
    "title": "양천구 흡연구역",
    "address": "서울특별시 양천구 중앙로 209",
    "lat": 37.5151471525982,
    "lng": 126.854789187328,
    "type": "public",
    "description": "아델리체 정문 앞 상가 거리에 위치한 흡연구역입니다.",
    "form": "",
    "images": [
      "images/흡연구역_이미지_예시.jpg"
    ],
    "source": "공공데이터",
    "manage": "",
    "district": "양천구"
  },
  {
    "id": "ycp-15",
    "title": "양천구청 흡연구역",
    "address": "서울특별시 양천구 신정동 321-4",
    "lat": 37.5170484539307,
    "lng": 126.866476530571,
    "type": "public",
    "description": "양천구청 부지에 위치한 흡연구역입니다.",
    "form": "개방형",
    "images": [
      "images/흡연구역_이미지_예시.jpg"
    ],
    "source": "공공데이터",
    "manage": "양천구청",
    "district": "양천구"
  },
  {
    "id": "ycp-16",
    "title": "양천구청 흡연구역",
    "address": "서울특별시 양천구 신정동 321-4",
    "lat": 37.5170484539307,
    "lng": 126.866476530571,
    "type": "public",
    "description": "양천구청 해누리타운 4층 옥외정원에 위치한 흡연구역입니다.",
    "form": "개방형",
    "images": [
      "images/흡연구역_이미지_예시.jpg"
    ],
    "source": "공공데이터",
    "manage": "양천구청",
    "district": "양천구"
  },
  {
    "id": "ycp-17",
    "title": "남부지방법원 흡연구역",
    "address": "서울특별시 양천구 신정동 313-1",
    "lat": 37.5216143644477,
    "lng": 126.864176313245,
    "type": "public",
    "description": "남부지방법원 후문 옆에 위치한 흡연구역입니다.",
    "form": "개방형",
    "images": [
      "images/흡연구역_이미지_예시.jpg"
    ],
    "source": "공공데이터",
    "manage": "남부지방법원",
    "district": "양천구"
  },
  {
    "id": "ycp-18",
    "title": "양천세무서 흡연구역",
    "address": "서울특별시 양천구 신정동 319-12",
    "lat": 37.5203475660724,
    "lng": 126.870031451004,
    "type": "public",
    "description": "양천세무서 부지 우측에 위치한 흡연구역입니다.",
    "form": "개방형",
    "images": [
      "images/흡연구역_이미지_예시.jpg"
    ],
    "source": "공공데이터",
    "manage": "양천세무서",
    "district": "양천구"
  },
  {
    "id": "ycp-19",
    "title": "양천구 흡연구역",
    "address": "서울특별시 양천구 목동동로 293",
    "lat": 37.5281783139269,
    "lng": 126.875771989415,
    "type": "public",
    "description": "현대41타워 앞 인도에 위치한 흡연구역입니다.",
    "form": "",
    "images": [
      "images/흡연구역_이미지_예시.jpg"
    ],
    "source": "공공데이터",
    "manage": "",
    "district": "양천구"
  },
  {
    "id": "ycb-1",
    "title": "현대백화점 목동점 흡연구역",
    "address": "서울특별시 양천구 목동 916",
    "lat": 37.5268543255661,
    "lng": 126.875034766819,
    "type": "building",
    "description": "현대백화점 목동점 4층에 위치한 흡연구역입니다.",
    "form": "개방형",
    "images": [
      "images/흡연구역_이미지_예시.jpg"
    ],
    "source": "공공데이터",
    "manage": "현대백화점",
    "district": "양천구"
  },
  {
    "id": "ycb-2",
    "title": "목동아이스링크 흡연구역",
    "address": "서울특별시 양천구 목동 914",
    "lat": 37.5305034439037,
    "lng": 126.881656501495,
    "type": "building",
    "description": "목동아이스링크 흡연구역입니다.",
    "form": "개방형",
    "images": [
      "images/흡연구역_이미지_예시.jpg"
    ],
    "source": "공공데이터",
    "manage": "목동아이스링크",
    "district": "양천구"
  },
  {
    "id": "ycb-3",
    "title": "양천차고지 흡연구역",
    "address": "서울특별시 양천구 신정동 1312",
    "lat": 37.5076806167566,
    "lng": 126.836509661819,
    "type": "building",
    "description": "양천차고지 1층에 위치한 흡연구역입니다.",
    "form": "개방형",
    "images": [
      "images/흡연구역_이미지_예시.jpg"
    ],
    "source": "공공데이터",
    "manage": "양천차고지",
    "district": "양천구"
  },
  {
    "id": "ycb-4",
    "title": "이대목동병원 흡연구역",
    "address": "서울특별시 양천구 목동 911-1",
    "lat": 37.5364912498233,
    "lng": 126.886268658933,
    "type": "building",
    "description": "이대목동병원 흡연구역입니다.",
    "form": "개방형",
    "images": [
      "images/흡연구역_이미지_예시.jpg"
    ],
    "source": "공공데이터",
    "manage": "이대목동병원",
    "district": "양천구"
  },
  {
    "id": "ydpp-1",
    "title": "오투타워 앞 흡연구역 A",
    "address": "서울특별시 영등포구 의사당대로 83",
    "lat": 37.5233667660094,
    "lng": 126.923451000009,
    "type": "public",
    "description": "오투타워 앞에 위치한 흡연구역 A입니다.",
    "form": "반개방형",
    "images": [],
    "source": "공공데이터",
    "manage": "",
    "district": "영등포구"
  },
  {
    "id": "ydpp-2",
    "title": "오투타워 앞 흡연구역 B",
    "address": "서울특별시 영등포구 여의대로 56",
    "lat": 37.5240793528555,
    "lng": 126.922872650933,
    "type": "public",
    "description": "오투타워 앞에 위치한 흡연구역 B입니다.",
    "form": "반개방형",
    "images": [],
    "source": "공공데이터",
    "manage": "",
    "district": "영등포구"
  },
  {
    "id": "ydpp-3",
    "title": "오투타워 앞 흡연구역 C",
    "address": "서울특별시 영등포구 여의대로 58",
    "lat": "",
    "lng": "",
    "type": "public",
    "description": "오투타워 앞에 위치한 흡연구역 C입니다.",
    "form": "반개방형",
    "images": [],
    "source": "공공데이터",
    "manage": "",
    "district": "영등포구"
  },
  {
    "id": "ydpp-4",
    "title": "여의도역 흡연구역",
    "address": "서울특별시 영등포구 의시당대로 97",
    "lat": "",
    "lng": "",
    "type": "public",
    "description": "여의도역 부근에 위치한 흡연구역입니다.",
    "form": "반개방형",
    "images": [],
    "source": "공공데이터",
    "manage": "",
    "district": "영등포구"
  },
  {
    "id": "ydpp-5",
    "title": "교직원공제회 앞 흡연구역",
    "address": "서울특별시 영등포구여의나루로 50",
    "lat": 37.5218052926703,
    "lng": 126.925651244211,
    "type": "public",
    "description": "교직원공제회 앞에 위치한 흡연구역입니다.",
    "form": "반개방형",
    "images": [],
    "source": "공공데이터",
    "manage": "",
    "district": "영등포구"
  },
  {
    "id": "ydpp-6",
    "title": "국회의사당역 앞 흡연구역 A",
    "address": "서울특별시 영등포구 은행로 3",
    "lat": 37.5275117444834,
    "lng": 126.919665809662,
    "type": "public",
    "description": "국회의사당역 앞에 위치한 흡연구역 A입니다.",
    "form": "반개방형",
    "images": [],
    "source": "공공데이터",
    "manage": "",
    "district": "영등포구"
  },
  {
    "id": "ydpp-7",
    "title": "국회의사당역 앞 흡연구역 B",
    "address": "서울특별시 영등포구 은행로 4",
    "lat": "",
    "lng": "",
    "type": "public",
    "description": "국회의사당역 앞에 위치한 흡연구역 B입니다.",
    "form": "반개방형",
    "images": [],
    "source": "공공데이터",
    "manage": "",
    "district": "영등포구"
  },
  {
    "id": "ydpp-8",
    "title": "한국투자증권 앞 흡연구역",
    "address": "서울특별시 영등포구 의사당대로 88",
    "lat": 37.5220854020269,
    "lng": 126.922273228945,
    "type": "public",
    "description": "한국투자증권 앞에 위치한 흡연구역입니다.",
    "form": "반개방형",
    "images": [],
    "source": "공공데이터",
    "manage": "",
    "district": "영등포구"
  },
  {
    "id": "ydpp-9",
    "title": "한국거래소 앞 흡연구역 A",
    "address": "서울특별시 영등포구 여의도동 3-4",
    "lat": 37.5218241261277,
    "lng": 126.927539919265,
    "type": "public",
    "description": "한국거래소 앞에 위치한 흡연구역 A입니다.",
    "form": "반개방형",
    "images": [],
    "source": "공공데이터",
    "manage": "",
    "district": "영등포구"
  },
  {
    "id": "ydpp-10",
    "title": "한국거래소 앞 흡연구역 B",
    "address": "서울특별시 영등포구 여의도동 3-5",
    "lat": 37.5208798440259,
    "lng": 126.927342304902,
    "type": "public",
    "description": "한국거래소 앞에 위치한 흡연구역 B입니다.",
    "form": "반개방형",
    "images": [],
    "source": "공공데이터",
    "manage": "",
    "district": "영등포구"
  },
  {
    "id": "ycb-11",
    "title": "대림중앙시장 흡연구역",
    "address": "서울특별시 영등포구 ",
    "lat": 37.5263635705036,
    "lng": 126.896273923703,
    "type": "building",
    "description": "대림중앙시장 흡연구역입니다.",
    "form": "개방형",
    "images": [],
    "source": "공공데이터",
    "manage": "시장상인회",
    "district": "영등포구"
  },
  {
    "id": "ysp-1",
    "title": "LS타워 옆 흡연구역",
    "address": "서울특별시 용산구 한강로2가 424-5",
    "lat": 37.5277386923167,
    "lng": 126.967249001484,
    "type": "public",
    "description": "LS타워 옆에 위치한 흡연구역입니다.",
    "form": "폐쇄형",
    "images": [],
    "source": "공공데이터",
    "manage": "용산구 보건소",
    "district": "용산구"
  },
  {
    "id": "ysp-2",
    "title": "용산전자상가1 공영주차장 옆 흡연구역",
    "address": "서울특별시 용산구 한강로3가 12-6",
    "lat": 37.5325466684597,
    "lng": 126.964021879379,
    "type": "public",
    "description": "용산전자상가1 공영주차장 옆에 위치한 흡연구역입니다.",
    "form": "개방형",
    "images": [],
    "source": "공공데이터",
    "manage": "용산구 보건소",
    "district": "용산구"
  },
  {
    "id": "ysp-3",
    "title": "선인상가 옆 흡연구역",
    "address": "서울특별시 용산구 한강로3가 17-1",
    "lat": 37.5322869283945,
    "lng": 126.964982888138,
    "type": "public",
    "description": "선인상가 옆에 위치한 흡연구역입니다.",
    "form": "개방형",
    "images": [],
    "source": "공공데이터",
    "manage": "용산구 보건소",
    "district": "용산구"
  },
  {
    "id": "ysp-4",
    "title": "서울역 11번 출구 옆 흡연구역",
    "address": "서울특별시 용산구 동자동 14-151",
    "lat": 37.553384695285004,
    "lng": 126.9730824587291,
    "type": "public",
    "description": "서울역 11번 출구 옆에 위치한 흡연구역입니다.",
    "form": "개방형",
    "images": [],
    "source": "공공데이터",
    "manage": "용산구 보건소",
    "district": "용산구"
  },
  {
    "id": "ydp-5",
    "title": "서울역 광장 흡연구역",
    "address": "서울특별시 용산구 동자동 43-234",
    "lat": 37.553722,
    "lng": 126.969293,
    "type": "public",
    "description": "서울역 광장 15번 출구에 위치한 흡연구역입니다.",
    "form": "개방형",
    "images": [],
    "source": "공공데이터",
    "manage": "한국철도공사",
    "district": "용산구"
  },
  {
    "id": "ysp-6",
    "title": "서울역 광장 흡연구역 ",
    "address": "서울특별시 중구 한강대로 405",
    "lat": 37.554963,
    "lng": 126.971411,
    "type": "public",
    "description": "서울역 광장 1번 출구에 위치한 흡연구역입니다.",
    "form": "개방형",
    "images": [],
    "source": "공공데이터",
    "manage": "한국철도공사",
    "district": "용산구"
  },
  {
    "id": "ysp-7",
    "title": "용산역 광장 흡연구역",
    "address": "서울특별시 용산구",
    "lat": 37.528703,
    "lng": 126.965098,
    "type": "public",
    "description": "용산역 앞 광장에 위치한 흡연구역입니다.",
    "form": "개방형",
    "images": [],
    "source": "공공데이터",
    "manage": "현대아이파크몰",
    "district": "용산구"
  },
  {
    "id": "ysp-8",
    "title": "용산구청 흡연구역",
    "address": "서울특별시 용산구 이태원동 34-87",
    "lat": 37.532634,
    "lng": 126.990321,
    "type": "public",
    "description": "용산구청 옥상에 위치한 흡연구역입니다.",
    "form": "개방형",
    "images": [],
    "source": "공공데이터",
    "manage": "용산구청",
    "district": "용산구"
  },
  {
    "id": "ysp-9",
    "title": "용산구청 흡연구역",
    "address": "서울특별시 용산구 녹사평대로 150",
    "lat": 37.532367,
    "lng": 126.990478,
    "type": "public",
    "description": "용산구청 2층 외부에 위치한 흡연구역입니다.",
    "form": "개방형",
    "images": [],
    "source": "공공데이터",
    "manage": "용산구청",
    "district": "용산구"
  },
  {
    "id": "ysp-10",
    "title": "서울지방보훈청 흡연구역",
    "address": "서울특별시 용산구 이태원로 6",
    "lat": 37.535084,
    "lng": 126.974210,
    "type": "public",
    "description": "서울지방보훈청 실외에 위치한 흡연구역입니다.",
    "form": "개방형",
    "images": [],
    "source": "공공데이터",
    "manage": "서울지방보훈청",
    "district": "용산구"
  },
  {
    "id": "ysp-11",
    "title": "용산세무서 흡연구역",
    "address": "서울특별시 용산구 서빙고로24길",
    "lat": 37.523432,
    "lng": 126.968709,
    "type": "public",
    "description": "용산세무서 1층 외부에 위치한 흡연구역입니다.",
    "form": "개방형",
    "images": [],
    "source": "공공데이터",
    "manage": "용산세무서",
    "district": "용산구"
  },
  {
    "id": "ysb-1",
    "title": "순천향대학교 서울병원 흡연구역",
    "address": "서울특별시 용산구 대사관로 59",
    "lat": 37.534406,
    "lng": 127.004436,
    "type": "building",
    "description": "순천향대학교 서울병원 장례식장 외부에 위치한 흡연구역입니다.",
    "form": "개방형",
    "images": [],
    "source": "공공데이터",
    "manage": "순천향대학교병원",
    "district": "용산구"
  },
  {
    "id": "ysb-2",
    "title": "순천향대학교 서울병원 흡연구역 ",
    "address": "서울특별시 용산구 한남동 657-111번지",
    "lat": 37.533985,
    "lng": 127.005024,
    "type": "building",
    "description": "순천향대학교 서울병원 신관 옥상에 위치한 흡연구역입니다.",
    "form": "개방형",
    "images": [],
    "source": "공공데이터",
    "manage": "순천향대학교병원",
    "district": "용산구"
  },
  {
    "id": "ysb-3",
    "title": "하얏트호텔 흡연구역 ",
    "address": "서울특별시 용산구",
    "lat": 37.540107,
    "lng": 126.997823,
    "type": "building",
    "description": "하얏트호텔 1층 외부 주차장 가는 길 휴식장소에 위치한 흡연구역입니다.",
    "form": "개방형",
    "images": [],
    "source": "공공데이터",
    "manage": "하얏트호텔",
    "district": "용산구"
  },
  {
    "id": "ysb-4",
    "title": "현대아이파크몰 흡연구역",
    "address": "서울특별시 용산구 한강로3",
    "lat": 37.529746,
    "lng": 126.964976,
    "type": "building",
    "description": "아이파크몰 달 주차장 4.5층에 위치한 흡연구역입니다.",
    "form": "개방형",
    "images": [],
    "source": "공공데이터",
    "manage": "현대아이파크몰",
    "district": "용산구"
  },
  {
    "id": "ysb-5",
    "title": "현대아이파크몰 흡연구역",
    "address": "서울특별시 용산구 한강대로23길 55",
    "lat": 37.529337,
    "lng": 126.963551,
    "type": "building",
    "description": "아이파크몰 해 주차장 4.5층에 위치한 흡연구역입니다.",
    "form": "개방형",
    "images": [],
    "source": "공공데이터",
    "manage": "현대아이파크몰",
    "district": "용산구"
  },
  {
    "id": "ysb-6",
    "title": "현대아이파크몰 흡연구역",
    "address": "서울특별시 용산구 한강로3가",
    "lat": 37.529837,
    "lng": 126.964165,
    "type": "building",
    "description": "아이파크몰 8층 옥상에 위치한 흡연구역입니다.",
    "form": "개방형",
    "images": [],
    "source": "공공데이터",
    "manage": "현대아이파크몰",
    "district": "용산구"
  },
  {
    "id": "ysb-7",
    "title": "선인상가 흡연구역",
    "address": "서울특별시 용산구",
    "lat": 37.533557,
    "lng": 126.965986,
    "type": "building",
    "description": "선인상가 21동 1층 외부에 위치한 흡연구역입니다.",
    "form": "개방형",
    "images": [],
    "source": "공공데이터",
    "manage": "선인상가",
    "district": "용산구"
  },
  {
    "id": "ysb-8",
    "title": "선인상가 흡연구역",
    "address": "서울특별시 용산구",
    "lat": 37.533283,
    "lng": 126.965782,
    "type": "building",
    "description": "선인상가 21동 옥상에 위치한 흡연구역입니다.",
    "form": "개방형",
    "images": [],
    "source": "공공데이터",
    "manage": "선인상가",
    "district": "용산구"
  },
  {
    "id": "epp-1",
    "title": "진관동 주민센터 흡연구역",
    "address": "서울특별시 은평구 진관2로 31",
    "lat": 37.6349631473395,
    "lng": 126.920735778649,
    "type": "public",
    "description": "진관동 주민센터 흡연구역입니다.",
    "form": "개방형",
    "images": [],
    "source": "공공데이터",
    "manage": "",
    "district": "은평구"
  },
  {
    "id": "epp-2",
    "title": "은평구청 흡연구역",
    "address": "서울특별시 은평구 은평로195",
    "lat": 37.6024574203071,
    "lng": 126.928822870137,
    "type": "public",
    "description": "은평구청 흡연구역입니다.",
    "form": "폐쇄형",
    "images": [],
    "source": "공공데이터",
    "manage": "",
    "district": "은평구"
  },
  {
    "id": "epb-3",
    "title": "은평구립도서관 흡연구역",
    "address": "서울특별시 은평구 통일로78가길 13-84",
    "lat": 37.6189785221501,
    "lng": 126.928271924743,
    "type": "public",
    "description": "은평구립도서관 흡연구역입니다.",
    "form": "개방형",
    "images": [],
    "source": "공공데이터",
    "manage": "",
    "district": "은평구"
  },
  {
    "id": "epb-1",
    "title": "가톨릭은평성모병원 흡연구역",
    "address": "서울특별시 은평구 통일로 1021",
    "lat": 37.6336094022541,
    "lng": 126.916152525534,
    "type": "building",
    "description": "가톨릭은평성모병원 흡연구역입니다.",
    "form": "폐쇄형",
    "images": [],
    "source": "공공데이터",
    "manage": "",
    "district": "은평구"
  },
  {
    "id": "epb-2",
    "title": "팜스퀘어 흡연구역",
    "address": "서울특별시 은평구 불광로 20",
    "lat": 37.6097357749976,
    "lng": 126.928938477038,
    "type": "building",
    "description": "팜스퀘어 흡연구역입니다.",
    "form": "폐쇄형",
    "images": [],
    "source": "공공데이터",
    "manage": "",
    "district": "은평구"
  },
  {
    "id": "epb-3",
    "title": "엔씨백화점 불광점 흡연구역",
    "address": "서울특별시 은평구 불광로 20",
    "lat": 37.6097357749976,
    "lng": 126.928938477038,
    "type": "building",
    "description": "엔씨백화점 불광점 흡연구역입니다.",
    "form": "폐쇄형",
    "images": [],
    "source": "공공데이터",
    "manage": "",
    "district": "은평구"
  },
  {
    "id": "epb-4",
    "title": "범서쇼핑 흡연구역",
    "address": "서울특별시 은평구 통일로 842",
    "lat": 37.6186902335511,
    "lng": 126.922063807625,
    "type": "building",
    "description": "범서쇼핑 흡연구역입니다.",
    "form": "폐쇄형",
    "images": [],
    "source": "공공데이터",
    "manage": "",
    "district": "은평구"
  },
  {
    "id": "epb-5",
    "title": "이마트 수색점 흡연구역",
    "address": "서울특별시 은평구 수색로 217",
    "lat": 37.5796932759305,
    "lng": 126.898678379239,
    "type": "building",
    "description": "이마트 수색점 흡연구역입니다.",
    "form": "폐쇄형",
    "images": [],
    "source": "공공데이터",
    "manage": "",
    "district": "은평구"
  },
  {
    "id": "epb-6",
    "title": "이마트 은평점 흡연구역",
    "address": "서울특별시 은평구 은평로 111",
    "lat": 37.6008254685415,
    "lng": 126.920513478627,
    "type": "building",
    "description": "이마트 은평점 흡연구역입니다.",
    "form": "폐쇄형",
    "images": [],
    "source": "공공데이터",
    "manage": "",
    "district": "은평구"
  },
  {
    "id": "epb-7",
    "title": "롯데몰 은평점 흡연구역",
    "address": "서울특별시 은평구 통일로 1050",
    "lat": 37.6375366740938,
    "lng": 126.917900261732,
    "type": "building",
    "description": "롯데몰 은평점 흡연구역입니다.",
    "form": "개방형",
    "images": [],
    "source": "공공데이터",
    "manage": "",
    "district": "은평구"
  },
  {
    "id": "epc-1",
    "title": "이디야 연신내역점 ",
    "address": "서울특별시 은평구 통일로 855-9",
    "lat": 37.6188948297727,
    "lng": 126.919884176889,
    "type": "cafe",
    "description": "흡연실이 있는 '이디야 연신내역점'입니다. ",
    "form": "폐쇄형",
    "images": [],
    "source": "공공데이터",
    "manage": "",
    "district": "은평구"
  },
  {
    "id": "epc-2",
    "title": "더홀릭보드게임카페 연신내점",
    "address": "서울특별시 은평구 연서로29길 13",
    "lat": 37.6189645255796,
    "lng": 126.918639609689,
    "type": "cafe",
    "description": "흡연실이 있는 '더홀릭보드게임카페 연신내점'입니다.",
    "form": "폐쇄형",
    "images": [],
    "source": "공공데이터",
    "manage": "",
    "district": "은평구"
  },
  {
    "id": "epc-3",
    "title": "아로이 커피 연신내점",
    "address": "서울특별시 은평구 통일로 838-4",
    "lat": 37.6183447019915,
    "lng": 126.922332954683,
    "type": "cafe",
    "description": "흡연실이 있는 '아로이 커피 연신내점'입니다.",
    "form": "폐쇄형",
    "images": [],
    "source": "공공데이터",
    "manage": "",
    "district": "은평구"
  },
  {
    "id": "epc-4",
    "title": "읍천리382 응암점",
    "address": "서울특별시 은평구 응암로 302-1",
    "lat": 37.5983100949703,
    "lng": 126.921068643841,
    "type": "cafe",
    "description": "흡연실이 있는 '읍천리382 응암점'입니다.",
    "form": "폐쇄형",
    "images": [],
    "source": "공공데이터",
    "manage": "",
    "district": "은평구"
  },
  {
    "id": "epc-5",
    "title": "놀숲 연신내로데오점",
    "address": "서울특별시 은평구 연서로29길 6",
    "lat": 37.6188077691384,
    "lng": 126.919582181082,
    "type": "cafe",
    "description": "흡연실이 있는 '놀숲 연신내로데오점'입니다.",
    "form": "폐쇄형",
    "images": [],
    "source": "공공데이터",
    "manage": "",
    "district": "은평구"
  },
  {
    "id": "jrp-1",
    "title": "낙원악기상가 흡연구역",
    "address": "서울특별시 종로구 낙원동 260-1",
    "lat": 37.57353342000437,
    "lng": 126.9878677125697,
    "type": "public",
    "description": "낙원악기상가 도로일부에 위치한 흡연구역입니다.",
    "form": "반개방형",
    "images": [
      "images/jrp_1_1.jpg"
    ],
    "source": "공공데이터",
    "manage": "종로구청, 민간",
    "district": "종로구"
  },
  {
    "id": "jrp-2",
    "title": "종로타워빌딩 뒷쪽 흡연구역",
    "address": "서울특별시 종로구 공평동 70-3",
    "lat": 37.5710688268753,
    "lng": 126.983993379347,
    "type": "public",
    "description": "종로타워빌딩 뒷쪽에 위치한 담배꽁초수거함입니다.",
    "form": "",
    "images": [
      "images/jrp_2_1.jpg"
    ],
    "source": "관리자 등록",
    "manage": "",
    "district": "종로구"
  },
  {
    "id": "jrp-3",
    "title": "sc제일은행본점빌딩 부근 흡연구역",
    "address": "서울특별시 종로구 청진동 70-8",
    "lat": 37.5713551243848,
    "lng": 126.981856490296,
    "type": "public",
    "description": "sc제일은행본점빌딩 부근에 위치한 흡연구역입니다.",
    "form": "",
    "images": [
      "images/jrp_3_1.jpg"
    ],
    "source": "관리자 등록",
    "manage": "",
    "district": "종로구"
  },
  {
    "id": "jrp-4",
    "title": "세종문화회관 흡연구역",
    "address": "서울특별시 종로구 세종대로 175",
    "lat": 37.572209170012215,
    "lng": 126.9749236541365,
    "type": "public",
    "description": "세종문화회관 뒷쪽에 위치한 흡연구역입니다. ",
    "form": "",
    "images": [],
    "source": "관리자 등록",
    "manage": "",
    "district": "종로구"
  },
  {
    "id": "jrb-1",
    "title": "박문각종로고시학원 부근 흡연구역",
    "address": "서울특별시 종로구 관수동 20",
    "lat": 37.569632290097054,
    "lng": 126.98975869882808,
    "type": "building",
    "description": "24시 찜질방 간판으로 들어가면 바로 있습니다.",
    "form": "",
    "images": [
      "images/jrb_1_1.jpg",
      "images/jrb_1_2.jpg"
    ],
    "source": "관리자 등록",
    "manage": "",
    "district": "종로구"
  },
  {
    "id": "jp-1",
    "title": "롯데백화점 측면부 흡연구역",
    "address": "서울특별시 중구 을지로 30",
    "lat": 37.5653458904198,
    "lng": 126.9810075639,
    "type": "public",
    "description": "롯데백화점 측면부에 위치한 흡연구역입니다.",
    "form": "반개방형",
    "images": [],
    "source": "공공데이터",
    "manage": "",
    "district": "중구"
  },
  {
    "id": "jp-2",
    "title": "KEB하나은행본점 측면부 흡연구역",
    "address": "서울특별시 중구 을지로 35",
    "lat": 37.5664918220199,
    "lng": 126.981865819602,
    "type": "public",
    "description": "KEB하나은행본점 측면부에 위치한 흡연구역입니다.",
    "form": "반개방형",
    "images": [],
    "source": "공공데이터",
    "manage": "",
    "district": "중구"
  },
  {
    "id": "jp-3",
    "title": "장교빌딩 전면부 흡연구역",
    "address": "서울특별시 중구 삼일대로 363",
    "lat": 37.5671565387212,
    "lng": 126.987052299704,
    "type": "public",
    "description": "장교빌딩 전면부에 위치한 흡연구역입니다.",
    "form": "반개방형",
    "images": [],
    "source": "공공데이터",
    "manage": "",
    "district": "중구"
  },
  {
    "id": "jp-4",
    "title": "두산타워 전면부 흡연구역",
    "address": "서울특별시 중구 장충단로 275",
    "lat": 37.5688849422849,
    "lng": 127.008775114213,
    "type": "public",
    "description": "두산타워 전면부에 위치한 흡연구역입니다.",
    "form": "반개방형",
    "images": [],
    "source": "공공데이터",
    "manage": "",
    "district": "중구"
  },
  {
    "id": "jp-5",
    "title": "서울스퀘어 측면부(서울역8번출구) 흡연구역",
    "address": "서울특별시 중구 한강대로 416",
    "lat": 37.555503632236,
    "lng": 126.973751343837,
    "type": "public",
    "description": "서울스퀘어 측면부(서울역8번출구)에 위치한 흡연구역입니다.",
    "form": "반개방형",
    "images": [],
    "source": "공공데이터",
    "manage": "",
    "district": "중구"
  },
  {
    "id": "jp-6",
    "title": "한국은행 앞 광장 쉼터 흡연구역",
    "address": "서울특별시 중구 남대문로3가 110-4",
    "lat": 37.5614927213131,
    "lng": 126.980108514802,
    "type": "public",
    "description": "한국은행 앞 광장 쉼터에 위치한 흡연구역입니다.",
    "form": "반개방형",
    "images": [],
    "source": "공공데이터",
    "manage": "",
    "district": "중구"
  },
  {
    "id": "jp-7",
    "title": "명동 하나플레이파크 흡연구역",
    "address": "서울특별시 중구 을지로2가 199-80",
    "lat": 37.565431866354,
    "lng": 126.98420749305,
    "type": "public",
    "description": "명동 하나플레이파크에 위치한 흡연구역입니다.",
    "form": "반개방형",
    "images": [],
    "source": "공공데이터",
    "manage": "",
    "district": "중구"
  },
  {
    "id": "jp-8",
    "title": "남대문로 쉼터 흡연구역",
    "address": "서울특별시 중구 봉래동1가 111-3",
    "lat": 37.5589348682072,
    "lng": 126.973606742897,
    "type": "public",
    "description": "남대문로 쉼터에 위치한 흡연구역입니다.",
    "form": "반개방형",
    "images": [],
    "source": "공공데이터",
    "manage": "",
    "district": "중구"
  },
  {
    "id": "jp-9",
    "title": "국도호텔 옆 흡연구역",
    "address": "서울특별시 중구 을지로4가 310-5",
    "lat": 37.5663402476457,
    "lng": 126.995990929176,
    "type": "public",
    "description": "국도호텔 옆에 위치한 흡연구역입니다.",
    "form": "반개방형",
    "images": [],
    "source": "공공데이터",
    "manage": "",
    "district": "중구"
  },
  {
    "id": "jp-10",
    "title": "을지로입구역 8번 출구 흡연구역",
    "address": "서울특별시 중구 남대문로 81",
    "lat": 37.5647299033135,
    "lng": 126.981730421825,
    "type": "public",
    "description": "을지로입구역 8번 출구에 위치한 흡연구역입니다.",
    "form": "반개방형",
    "images": [],
    "source": "공공데이터",
    "manage": "중구청, 한국일보, 롯데백화점",
    "district": "중구"
  },
  {
    "id": "jnp-1",
    "title": "면일체육문화센터 흡연구역",
    "address": "서울특별시 중랑구 용마산로100길 13",
    "lat": 37.591417068289026,
    "lng": 127.0998584182545,
    "type": "public",
    "description": "면일체육문화센터 흡연구역입니다.",
    "form": "",
    "images": [],
    "source": "공공데이터",
    "manage": "",
    "district": "중랑구"
  },
  {
    "id": "jnp-2",
    "title": "중랑구청 흡연구역",
    "address": "서울특별시 중랑구 봉화산로 179",
    "lat": 37.6065635856848,
    "lng": 127.09272484193,
    "type": "public",
    "description": "중랑구청 흡연구역입니다.",
    "form": "",
    "images": [],
    "source": "공공데이터",
    "manage": "",
    "district": "중랑구"
  },
  {
    "id": "jnp-3",
    "title": "면목동 흡연구역",
    "address": "서울특별시 중랑구 신내로 156",
    "lat": 37.6130913124974,
    "lng": 127.099186989431,
    "type": "public",
    "description": "면목동 흡연구역입니다.",
    "form": "",
    "images": [],
    "source": "공공데이터",
    "manage": "",
    "district": "중랑구"
  },
  {
    "id": "jnp-4",
    "title": "서울의료원 흡연구역",
    "address": "서울특별시 중랑구 신내역로 111",
    "lat": 37.613121773853,
    "lng": 127.11244192431,
    "type": "building",
    "description": "서울의료원 흡연구역입니다.",
    "form": "",
    "images": [],
    "source": "공공데이터",
    "manage": "",
    "district": "중랑구"
  },
  {
    "id": "jnc-1",
    "title": "투썸플레이스 중랑역점",
    "address": "서울 중랑구 상봉동 130-166",
    "lat": 37.59352547094142,
    "lng": 127.07548827041542,
    "type": "cafe",
    "description": "흡연실이 있는 카페 '투썸플레이스 중랑역점'입니다.",
    "form": "밀폐형",
    "images": [],
    "source": "관리자 등록",
    "manage": "",
    "district": "중랑구"
  },
  {
    "id": "jlc-2",
    "title": "탐앤탐스 사가정역점",
    "address": "서울 중랑구 면목동 496-17",
    "lat": 37.58121585591543,
    "lng": 127.08820090523852,
    "type": "cafe",
    "description": "흡연실이 있는 '탐앤탐스 사가정역점'입니다.",
    "form": "폐쇄형",
    "images": [
      "images/흡연구역_이미지_예시.jpg"
    ],
    "source": "관리자",
    "manage": "탐앤탐스 사가정역점",
    "district": "중랑구"
  },
  {
    "id": "jlc-3",
    "title": "탐앤탐스 중랑구청점",
    "address": "서울특별시 중랑구 신내동 565-1",
    "lat": 37.60547111767368,
    "lng": 127.09612582746244,
    "type": "cafe",
    "description": "흡연실이 있는 '탐앤탐스 중랑구청점'입니다.",
    "form": "폐쇄형",
    "images": [
      "images/흡연구역_이미지_예시.jpg"
    ],
    "source": "관리자",
    "manage": "탐앤탐스 중랑구청점",
    "district": "중랑구"
  },
  {
    "id": "hgp-1",
    "title": "광나루 흡연부스 1",
    "address": "서울특별시 강동구 천호동 350-3",
    "lat": 37.54606860663839,
    "lng": 127.1206276614603,
    "type": "public",
    "description": "광나루 제2주차장 부근 녹지창고 옆에 위치한 흡연구역입니다.",
    "form": "반개방형",
    "images": [
      "images/흡연구역_이미지_예시.jpg"
    ],
    "source": "서울시 미래한강본부(한강공원) 누리집",
    "manage": ""
  },
  {
    "id": "hgp-2",
    "title": "광나루 흡연부스 2",
    "address": "서울특별시 송파구 풍납동 49-2",
    "lat": 37.5411370220289,
    "lng": 127.11701300665766,
    "type": "public",
    "description": "광나루 제3주차장 부근 (천호대교 남단)에 위치한 흡연구역입니다.",
    "form": "반개방형",
    "images": [
      "images/흡연구역_이미지_예시.jpg"
    ],
    "source": "서울시 미래한강본부(한강공원) 누리집",
    "manage": ""
  },
  {
    "id": "hgp-3",
    "title": "잠실한강공원 흡연부스 1",
    "address": "서울특별시 송파구 잠실동 1-1",
    "lat": 37.52003086934922,
    "lng": 127.09461342781323,
    "type": "public",
    "description": "잠실 제1주차장 옆(잠실대교 남단 하부)에 위치한 흡연구역입니다.",
    "form": "반개방형",
    "images": [
      "images/흡연구역_이미지_예시.jpg"
    ],
    "source": "서울시 미래한강본부(한강공원) 누리집",
    "manage": ""
  },
  {
    "id": "hgp-4",
    "title": "잠실한강공원 흡연부스 2",
    "address": "서울특별시 송파구 잠실동 1-11",
    "lat": 37.51749286245547,
    "lng": 127.08178569918347,
    "type": "public",
    "description": "잠실한강공원 제3주차장 앞에 위치한 흡연구역입니다.",
    "form": "반개방형",
    "images": [
      "images/흡연구역_이미지_예시.jpg"
    ],
    "source": "서울시 미래한강본부(한강공원) 누리집",
    "manage": ""
  },
  {
    "id": "hgp-5",
    "title": "잠실한강공원 흡연부스 3",
    "address": "서울특별시 송파구 잠실동 1-121",
    "lat": 37.518294065212444,
    "lng": 127.07607698314501,
    "type": "public",
    "description": "잠실한강공원 제4주차장 옆에 위치한 흡연구역입니다.",
    "form": "반개방형",
    "images": [
      "images/흡연구역_이미지_예시.jpg"
    ],
    "source": "서울시 미래한강본부(한강공원) 누리집",
    "manage": ""
  },
  {
    "id": "hgp-6",
    "title": "잠원한강공원 흡연부스 1",
    "address": "서울특별시 강남구 압구정동 386",
    "lat": 37.52863314660796,
    "lng": 127.02117563825064,
    "type": "public",
    "description": "잠원한강공원 제1주차장 부근에 위치한 흡연구역입니다.",
    "form": "반개방형",
    "images": [
      "images/흡연구역_이미지_예시.jpg"
    ],
    "source": "서울시 미래한강본부(한강공원) 누리집",
    "manage": ""
  },
  {
    "id": "hgp-7",
    "title": "잠원한강공원 흡연부스 2",
    "address": "서울특별시 강남구 압구정동 390",
    "lat": 37.52666037348955,
    "lng": 127.01868056732243,
    "type": "public",
    "description": "잠원한강공원 제3주차장 옆에 위치한 흡연구역입니다.",
    "form": "반개방형",
    "images": [
      "images/흡연구역_이미지_예시.jpg"
    ],
    "source": "서울시 미래한강본부(한강공원) 누리집",
    "manage": ""
  },
  {
    "id": "hgp-8",
    "title": "잠원한강공원 흡연부스 3",
    "address": "서울특별시 서초구 잠원동 121",
    "lat": 37.5189804733992,
    "lng": 127.00882888019338,
    "type": "public",
    "description": "잠원한강공원 제6주차장(수영장) 부근에 위치한 흡연구역입니다.",
    "form": "반개방형",
    "images": [
      "images/흡연구역_이미지_예시.jpg"
    ],
    "source": "서울시 미래한강본부(한강공원) 누리집",
    "manage": ""
  },
  {
    "id": "hgp-9",
    "title": "반포한강공원 흡연부스 1",
    "address": "서울특별시 서초구 잠원동 122-1",
    "lat": 37.512955309852515,
    "lng": 127.0027231031741,
    "type": "public",
    "description": "반포한강공원 제1주차장 부근(1호 매점 뒤편)에 위치한 흡연구역입니다.",
    "form": "반개방형",
    "images": [
      "images/흡연구역_이미지_예시.jpg"
    ],
    "source": "서울시 미래한강본부(한강공원) 누리집",
    "manage": ""
  },
  {
    "id": "hgp-10",
    "title": "반포한강공원 흡연부스 2",
    "address": "서울특별시 서초구 잠원동 123-1",
    "lat": 37.51178403173185,
    "lng": 127.0009727236278,
    "type": "public",
    "description": "반포한강공원 반포나들목(자전거 대여점) 부근에 위치한 흡연구역입니다.",
    "form": "반개방형",
    "images": [
      "images/흡연구역_이미지_예시.jpg"
    ],
    "source": "서울시 미래한강본부(한강공원) 누리집",
    "manage": ""
  },
  {
    "id": "hgp-11",
    "title": "반포한강공원 흡연부스 3",
    "address": "서울특별시 서초구 반포동 115-5",
    "lat": 37.51003155216195,
    "lng": 126.99734203827738,
    "type": "public",
    "description": "반포한강공원 제2주차장 상류(반포대교 남단)에 위치한 흡연구역입니다.",
    "form": "반개방형",
    "images": [
      "images/흡연구역_이미지_예시.jpg"
    ],
    "source": "서울시 미래한강본부(한강공원) 누리집",
    "manage": ""
  },
  {
    "id": "hgp-12",
    "title": "반포한강공원 흡연부스 4",
    "address": "서울특별시 서초구 반포동 115-10",
    "lat": 37.50899523224767,
    "lng": 126.9932222913128,
    "type": "public",
    "description": "반포한강공원 제2호 매점 인근(제2주차장 사이)에 위치한 흡연구역입니다.",
    "form": "반개방형",
    "images": [
      "images/흡연구역_이미지_예시.jpg"
    ],
    "source": "서울시 미래한강본부(한강공원) 누리집",
    "manage": ""
  },
  {
    "id": "hgp-13",
    "title": "반포한강공원 흡연부스 5",
    "address": "서울특별시 서초구 반포동 1337-3",
    "lat": 37.507404880533805,
    "lng": 126.99197549888126,
    "type": "public",
    "description": "반포한강공원 안내센터 부근(제2주차장)에 위치한 흡연구역입니다.",
    "form": "반개방형",
    "images": [
      "images/흡연구역_이미지_예시.jpg"
    ],
    "source": "서울시 미래한강본부(한강공원) 누리집",
    "manage": ""
  },
  {
    "id": "hgp-14",
    "title": "여의도한강공원 흡연부스 1",
    "address": "서울특별시 영등포구 여의도동 85",
    "lat": 37.52306434880277,
    "lng": 126.93848859665518,
    "type": "public",
    "description": "여의도한강공원 제1주차장(원효대교 남단 하부)에 위치한 흡연구역입니다.",
    "form": "반개방형",
    "images": [
      "images/흡연구역_이미지_예시.jpg"
    ],
    "source": "서울시 미래한강본부(한강공원) 누리집",
    "manage": ""
  },
  {
    "id": "hgp-15",
    "title": "여의도한강공원 흡연부스 2",
    "address": "서울특별시 영등포구 여의도동 84-4",
    "lat": 37.52709119967274,
    "lng": 126.93318512696648,
    "type": "public",
    "description": "여의도한강공원 안내센터 부근(천상의 계단)에 위치한 흡연구역입니다.",
    "form": "반개방형",
    "images": [
      "images/흡연구역_이미지_예시.jpg"
    ],
    "source": "서울시 미래한강본부(한강공원) 누리집",
    "manage": ""
  },
  {
    "id": "hgp-16",
    "title": "여의도한강공원 흡연부스 3",
    "address": "서울특별시 영등포구 여의도동 85-5",
    "lat": 37.528986744621136,
    "lng": 126.93133087765888,
    "type": "public",
    "description": "여의도한강공원 제2주차장 앞에 위치한 흡연구역입니다.",
    "form": "반개방형",
    "images": [
      "images/흡연구역_이미지_예시.jpg"
    ],
    "source": "서울시 미래한강본부(한강공원) 누리집",
    "manage": ""
  },
  {
    "id": "hgp-17",
    "title": "여의도한강공원 흡연부스 4",
    "address": "서울특별시 영등포구 여의도동 84",
    "lat": 37.529863917206626,
    "lng": 126.92912394741545,
    "type": "public",
    "description": "여의도한강공원 자전거 대여점(마포점) 뒤편에 위치한 흡연구역입니다.",
    "form": "반개방형",
    "images": [
      "images/흡연구역_이미지_예시.jpg"
    ],
    "source": "서울시 미래한강본부(한강공원) 누리집",
    "manage": ""
  },
  {
    "id": "hgp-18",
    "title": "여의도한강공원 흡연부스 5",
    "address": "서울특별시 영등포구 여의도동 83-6",
    "lat": 37.532360054903066,
    "lng": 126.92253127129207,
    "type": "public",
    "description": "여의도한강공원 제3주차장(서강대교 남단) 부근에 위치한 흡연구역입니다.",
    "form": "반개방형",
    "images": [
      "images/흡연구역_이미지_예시.jpg"
    ],
    "source": "서울시 미래한강본부(한강공원) 누리집",
    "manage": ""
  },
  {
    "id": "hgp-19",
    "title": "양화한강공원 흡연부스 1",
    "address": "서울특별시 영등포구 당산동 95-1",
    "lat": 37.53783049060803,
    "lng": 126.90302760821515,
    "type": "public",
    "description": "양화한강공원 제1주차장 끝에 위치한 흡연구역입니다.",
    "form": "반개방형",
    "images": [
      "images/흡연구역_이미지_예시.jpg"
    ],
    "source": "서울시 미래한강본부(한강공원) 누리집",
    "manage": ""
  },
  {
    "id": "hgp-20",
    "title": "양화한강공원 흡연부스 2",
    "address": "서울특별시 영등포구 양화동 1-4",
    "lat": 37.54306021498644,
    "lng": 126.89447200598951,
    "type": "public",
    "description": "양화한강공원 농구장, 선유교 하류 야외씨름장 부근에 위치한 흡연구역입니다.",
    "form": "반개방형",
    "images": [
      "images/흡연구역_이미지_예시.jpg"
    ],
    "source": "서울시 미래한강본부(한강공원) 누리집",
    "manage": ""
  },
  {
    "id": "hgp-21",
    "title": "양화한강공원 흡연부스 3",
    "address": "서울특별시 영등포구 양화동 1-8",
    "lat": 37.544479329551066,
    "lng": 126.89202582040427,
    "type": "public",
    "description": "양화한강공원 제3주차장 뒤편에 위치장 흡연구역입니다.",
    "form": "반개방형",
    "images": [
      "images/흡연구역_이미지_예시.jpg"
    ],
    "source": "서울시 미래한강본부(한강공원) 누리집",
    "manage": ""
  },
  {
    "id": "hgp-22",
    "title": "강서한강공원 흡연부스 1",
    "address": "서울특별시 강서구 방화동 72-11",
    "lat": 37.58444691425482,
    "lng": 126.82109984330205,
    "type": "public",
    "description": "강서한강공원 매점1호점(방화대교 남단) 부근에 위치한 흡연구역입니다.",
    "form": "반개방형",
    "images": [
      "images/흡연구역_이미지_예시.jpg"
    ],
    "source": "서울시 미래한강본부(한강공원) 누리집",
    "manage": ""
  },
  {
    "id": "hgp-23",
    "title": "강서한강공원 흡연부스 2",
    "address": "서울특별시 강서구 방화동 25",
    "lat": 37.585441144872895,
    "lng": 126.81872836458857,
    "type": "public",
    "description": "강서한강공원 강서주차장 부근(진입광장 뒤편)에 위치한 흡연구역입니다.",
    "form": "반개방형",
    "images": [
      "images/흡연구역_이미지_예시.jpg"
    ],
    "source": "서울시 미래한강본부(한강공원) 누리집",
    "manage": ""
  },
  {
    "id": "hgp-24",
    "title": "뚝섬한강공원 흡연부스 1",
    "address": "서울특별시 광진구 자양동 564",
    "lat": 37.527340368850915,
    "lng": 127.07914070230977,
    "type": "public",
    "description": "뚝섬한강공원 윈드서핑장 부근에 위치한 흡연구역입니다.",
    "form": "반개방형",
    "images": [
      "images/흡연구역_이미지_예시.jpg"
    ],
    "source": "서울시 미래한강본부(한강공원) 누리집",
    "manage": ""
  },
  {
    "id": "hgp-25",
    "title": "뚝섬한강공원 흡연부스 2",
    "address": "서울특별시 광진구 자양동 558-3",
    "lat": 37.52780077944121,
    "lng": 127.07778643840376,
    "type": "public",
    "description": "뚝섬한강공원 제1주차장 부근에 위치한 흡연구역입니다.",
    "form": "반개방형",
    "images": [
      "images/흡연구역_이미지_예시.jpg"
    ],
    "source": "서울시 미래한강본부(한강공원) 누리집",
    "manage": ""
  },
  {
    "id": "hgp-26",
    "title": "뚝섬한강공원 흡연부스 3",
    "address": "서울특별시 광진구 자양동 427-1",
    "lat": 37.52957670045983,
    "lng": 127.07276512257316,
    "type": "public",
    "description": "뚝섬한강공원 제2주차장(뚝섬안내센터) 부근에 위치한 흡연구역입니다.",
    "form": "반개방형",
    "images": [
      "images/흡연구역_이미지_예시.jpg"
    ],
    "source": "서울시 미래한강본부(한강공원) 누리집",
    "manage": ""
  },
  {
    "id": "hgp-27",
    "title": "뚝섬한강공원 흡연부스 4",
    "address": "서울특별시 광진구 자양동 112",
    "lat": 37.53043943722086,
    "lng": 127.0689646065126,
    "type": "public",
    "description": "뚝섬한강공원 제3주차장 부근에 위치한 흡연구역입니다.",
    "form": "반개방형",
    "images": [
      "images/흡연구역_이미지_예시.jpg"
    ],
    "source": "서울시 미래한강본부(한강공원) 누리집",
    "manage": ""
  },
  {
    "id": "hgp-28",
    "title": "뚝섬한강공원 흡연부스 5, 6",
    "address": "서울특별시 광진구 자양동 97-5",
    "lat": 37.53132464993162,
    "lng": 127.06503108655771,
    "type": "public",
    "description": "뚝섬한강공원 제4주차장 앞에 위치한 흡연구역입니다.",
    "form": "반개방형",
    "images": [
      "images/흡연구역_이미지_예시.jpg"
    ],
    "source": "서울시 미래한강본부(한강공원) 누리집",
    "manage": ""
  },
  {
    "id": "hgp-29",
    "title": "이촌한강공원 흡연부스 1",
    "address": "서울특별시 용산구 용산동6가 452-1",
    "lat": 37.5158418389614,
    "lng": 126.98302448817167,
    "type": "public",
    "description": "이촌한강공원 제2주차장 부근(동작대교 북단 하부)에 위치한 흡연구역입니다.",
    "form": "반개방형",
    "images": [
      "images/흡연구역_이미지_예시.jpg"
    ],
    "source": "서울시 미래한강본부(한강공원) 누리집",
    "manage": ""
  },
  {
    "id": "hgp-30",
    "title": "이촌한강공원 흡연부스 2",
    "address": "서울특별시 용산구 이촌동 302-17",
    "lat": 37.51766607201773,
    "lng": 126.97015144301862,
    "type": "public",
    "description": "이촌한강공원 제3주차장 부근(이촌 2호 매점)에 위치한 흡연구역입니다.",
    "form": "반개방형",
    "images": [
      "images/흡연구역_이미지_예시.jpg"
    ],
    "source": "서울시 미래한강본부(한강공원) 누리집",
    "manage": ""
  },
  {
    "id": "hgp-31",
    "title": "망원한강공원 흡연부스 1",
    "address": "서울특별시 마포구 합정동 352-5",
    "lat": 37.545611271901,
    "lng": 126.90952414107296,
    "type": "public",
    "description": "망원한강공원 제1주차장 부근(양화대교 북단)에 위치한 흡연구역입니다.",
    "form": "반개방형",
    "images": [
      "images/흡연구역_이미지_예시.jpg"
    ],
    "source": "서울시 미래한강본부(한강공원) 누리집",
    "manage": ""
  },
  {
    "id": "hgp-32",
    "title": "망원한강공원 흡연부스 2",
    "address": "서울특별시 마포구 망원동 205-5",
    "lat": 37.55366576865526,
    "lng": 126.89794836703726,
    "type": "public",
    "description": "망원한강공원 제2주차장 부근(서울함공원)에 위치한 흡연구역입니다.",
    "form": "반개방형",
    "images": [
      "images/흡연구역_이미지_예시.jpg"
    ],
    "source": "서울시 미래한강본부(한강공원) 누리집",
    "manage": ""
  },
  {
    "id": "hgp-33",
    "title": "망원한강공원 흡연부스 3",
    "address": "서울특별시 마포구 망원동 210-5",
    "lat": 37.55622188210597,
    "lng": 126.89484955922939,
    "type": "public",
    "description": "망원한강공원 제4주차장 부근(성단대교 북단)에 위치한 흡연구역입니다.",
    "form": "반개방형",
    "images": [
      "images/흡연구역_이미지_예시.jpg"
    ],
    "source": "서울시 미래한강본부(한강공원) 누리집",
    "manage": ""
  },
  {
    "id": "hgp-34",
    "title": "난지한강공원 흡연부스 1",
    "address": "서울특별시 마포구 상암동 482-428",
    "lat": 37.56444527271449,
    "lng": 126.88242705683402,
    "type": "public",
    "description": "난지한강공원 제2주차장 사이(화장실 옆)에 위치한 흡연구역입니다.",
    "form": "반개방형",
    "images": [
      "images/흡연구역_이미지_예시.jpg"
    ],
    "source": "서울시 미래한강본부(한강공원) 누리집",
    "manage": ""
  },
  {
    "id": "hgp-35",
    "title": "난지한강공원 흡연부스 2",
    "address": "서울특별시 마포구 상암동 495-81",
    "lat": 37.56959693392622,
    "lng": 126.8739095479965,
    "type": "public",
    "description": "난지한강공원 제3주차장(난지캠핑장 앞)에 위치한 흡연구역입니다.",
    "form": "반개방형",
    "images": [
      "images/흡연구역_이미지_예시.jpg"
    ],
    "source": "서울시 미래한강본부(한강공원) 누리집",
    "manage": ""
  }
]